ISO3166_1,ISO3166_2,FIPS,LATITUDE,LONGITUDE,STATE,COUNTY,TOTAL_POPULATION,TOTAL_MALE_POPULATION,TOTAL_FEMALE_POPULATION
US,LA,22061,32.5850295,-92.4427885,LA,Lincoln Parish,47480,23134,24346
US,LA,22063,30.3897408,-90.5260293,LA,Livingston Parish,135925,66559,69366
US,LA,22065,32.3529253,-91.0448055,LA,Madison Parish,11803,5884,5919
US,LA,22067,32.8915838,-91.6192641,LA,Morehouse Parish,26739,12774,13965
US,LA,22069,31.5549424,-92.9050263,LA,Natchitoches Parish,39258,18654,20604
US,LA,22071,30.1220774,-89.7244953,LA,Orleans Parish,382922,182959,199963
US,LA,22073,32.5403093,-91.9419868,LA,Ouachita Parish,156398,74967,81431
US,LA,22075,29.4496605,-89.1349413,LA,Plaquemines Parish,23584,11585,11999
US,LA,22077,30.716461,-91.3815651,LA,Pointe Coupee Parish,22366,10791,11575
US,LA,22079,31.3278832,-92.1284391,LA,Rapides Parish,132373,63960,68413
US,LA,22081,32.002476,-93.2216235,LA,Red River Parish,8757,4230,4527
US,LA,22083,32.463941,-91.4859266,LA,Richland Parish,20692,10072,10620
US,LA,22085,31.4401713,-93.338234,LA,Sabine Parish,24144,12018,12126
US,LA,22087,29.8110785,-88.9710205,LA,St. Bernard Parish,44091,21801,22290
US,LA,22089,29.9434918,-90.2955647,LA,St. Charles Parish,52708,25783,26925
US,LA,22091,30.782018,-90.6018356,LA,St. Helena Parish,10714,5205,5509
US,LA,22093,29.9337736,-90.6745311,LA,St. James Parish,21581,10403,11178
US,LA,22095,30.1978447,-90.4203837,LA,St. John the Baptist Parish,43888,21472,22416
US,LA,22097,30.701143,-91.7530897,LA,St. Landry Parish,83699,40138,43561
US,LA,22099,29.7889208,-91.1436122,LA,St. Martin Parish,53385,26391,26994
US,LA,22101,29.688513,-91.1300079,LA,St. Mary Parish,53053,26204,26849
US,LA,22103,30.2024436,-89.6404829,LA,St. Tammany Parish,246269,119732,126537
US,LA,22105,30.3902312,-90.2869175,LA,Tangipahoa Parish,127115,61684,65431
US,LA,22107,32.0409052,-91.1493287,LA,Tensas Parish,4793,2335,2458
US,LA,22109,29.3304395,-90.5188781,LA,Terrebonne Parish,113099,55881,57218
US,LA,22111,32.7438981,-92.1202751,LA,Union Parish,22460,11100,11360
US,LA,22113,29.9552439,-91.9947317,LA,Vermilion Parish,59524,28756,30768
US,LA,22115,30.9950071,-92.8630924,LA,Vernon Parish,52101,27428,24673
US,LA,22117,30.9431996,-89.801877,LA,Washington Parish,46367,22871,23496
US,LA,22119,32.6213607,-93.2090298,LA,Webster Parish,40335,19558,20777
US,LA,22121,30.3315949,-91.1924989,LA,West Baton Rouge Parish,25017,12436,12581
US,LA,22123,32.9659844,-91.3120114,LA,West Carroll Parish,11370,5750,5620
US,LA,22125,30.7772175,-91.2915757,LA,West Feliciana Parish,15384,9325,6059
US,LA,22127,31.9828897,-92.3990943,LA,Winn Parish,14695,7735,6960
US,MA,25001,41.7662035,-69.941451,MA,Barnstable County,214703,102542,112161
US,MA,25003,42.6800415,-73.0158137,MA,Berkshire County,128563,62125,66438
US,MA,25005,41.6046635,-70.8453478,MA,Bristol County,554868,268739,286129
US,MA,25007,41.3811685,-70.4583373,MA,Dukes County,17137,8231,8906
US,MA,25009,42.6497443,-70.5944668,MA,Essex County,769362,370538,398824
US,MA,25011,42.6381713,-72.2584801,MA,Franklin County,70916,34721,36195
US,MA,25013,42.0572991,-72.1408065,MA,Hampden County,468072,225908,242164
US,MA,25015,42.2521793,-72.228976,MA,Hampshire County,161035,75315,85720
US,MA,25017,42.4401931,-71.0246015,MA,Middlesex County,1567610,765170,802440
US,MA,25019,41.2542382,-69.9910773,MA,Nantucket County,10694,5728,4966
US,MA,25021,42.2445881,-70.7894785,MA,Norfolk County,691218,331220,359998
US,MA,25023,41.852216,-70.5291795,MA,Plymouth County,506657,246500,260157
US,MA,25025,42.3265116,-70.9390337,MA,Suffolk County,767719,371314,396405
US,MA,25027,42.1468913,-71.49131,MA,Worcester County,813589,401320,412269
US,MD,24001,39.6704707,-78.3878895,MD,Allegany County,73060,38077,34983
US,MD,24003,39.0299386,-76.4096628,MD,Anne Arundel County,559737,276842,282895
US,MD,24005,39.3646198,-76.3406285,MD,Baltimore County,825666,391102,434564
US,MD,24510,39.3462361,-76.5313532,MD,Baltimore city,621000,292168,328832
US,MD,24009,38.3472104,-76.4030909,MD,Calvert County,90527,44966,45561
US,MD,24011,38.7075946,-75.7342825,MD,Caroline County,32653,15822,16831
US,MD,24013,39.694005,-76.8170502,MD,Carroll County,167535,82892,84643
US,MD,24015,39.5482366,-75.7964607,MD,Cecil County,102175,50603,51572
US,MD,24017,38.5250633,-76.715511,MD,Charles County,154357,74489,79868
US,MD,24019,38.6390883,-75.7658181,MD,Dorchester County,32451,15519,16932
US,MD,24021,39.4708144,-77.1412525,MD,Frederick County,243465,120072,123393
US,MD,24023,39.713587,-79.0233146,MD,Garrett County,29677,14701,14976
US,MD,24025,39.4955418,-76.0836184,MD,Harford County,249776,122076,127700
US,MD,24027,39.2095883,-76.7124153,MD,Howard County,308447,151100,157347
US,MD,24029,39.2682937,-75.8099309,MD,Kent County,19819,9539,10280
US,MD,24031,39.1083045,-76.9146695,MD,Montgomery County,1026371,494612,531759
US,MD,24033,38.9300211,-76.6950285,MD,Prince George's County,897693,431752,465941
US,MD,24035,39.2054414,-75.8223904,MD,Queen Anne's County,48712,24151,24561
US,MD,24039,38.1200432,-75.5992095,MD,Somerset County,25899,13936,11963
US,MD,24037,38.0878617,-76.3510547,MD,St. Mary's County,110675,55176,55499
US,MD,24041,38.8372674,-75.9640273,MD,Talbot County,37668,17733,19935
US,MD,24043,39.6977289,-77.4945899,MD,Washington County,149571,76043,73528
US,MD,24045,38.3991538,-75.3494333,MD,Wicomico County,101527,48364,53163
US,MD,24047,38.4368096,-75.0515225,MD,Worcester County,51441,24999,26442
US,ME,23001,44.0937623,-70.0354706,ME,Androscoggin County,107376,52566,54810
US,ME,23003,46.1119268,-67.8082113,ME,Aroostook County,69405,34255,35150
US,ME,23005,43.9260477,-69.8843345,ME,Cumberland County,288204,140167,148037
US,ME,23007,44.6502006,-70.0003097,ME,Franklin County,30270,14841,15429
US,ME,23009,44.4402602,-67.9977675,ME,Hancock County,54483,26530,27953
US,ME,23011,44.596709,-69.4236707,ME,Kennebec County,120953,58816,62137
US,ME,23013,44.0271653,-68.5756752,ME,Knox County,39717,19601,20116
US,ME,23015,43.7674264,-69.3100589,ME,Lincoln County,34165,16771,17394
US,ME,23017,44.4905874,-70.2945474,ME,Oxford County,57299,28391,28908
US,ME,23019,45.4385046,-68.1098185,ME,Penobscot County,152978,75521,77457
US,ME,23021,45.2868319,-68.8951091,ME,Piscataquis County,17044,8470,8574
US,ME,23023,43.9393241,-69.7457332,ME,Sagadahoc County,35134,17052,18082
US,ME,23025,44.7730914,-69.3015372,ME,Somerset County,51363,25361,26002
US,ME,23027,44.502001,-68.809361,ME,Waldo County,39071,19311,19760
US,ME,23029,44.8508569,-66.9980754,ME,Washington County,31925,15779,16146
US,ME,23031,43.4439511,-70.3404846,ME,York County,200536,97912,102624
US,MI,26001,44.6820957,-82.8285924,MI,Alcona County,10461,5277,5184
US,MI,26003,46.5408709,-86.2090818,MI,Alger County,9396,5167,4229
US,MI,26005,42.7478655,-85.5723791,MI,Allegan County,113666,56627,57039
US,MI,26007,45.0287852,-82.9016078,MI,Alpena County,28929,14258,14671
US,MI,26009,44.9218681,-84.9166027,MI,Antrim County,23215,11544,11671
US,MI,26011,44.1170081,-83.4084921,MI,Arenac County,15327,7751,7576
US,MI,26013,46.71244,-88.224319,MI,Baraga County,8612,5262,3350
US,MI,26015,42.5886652,-85.0802532,MI,Barry County,59316,29844,29472
US,MI,26017,43.5859789,-83.7441842,MI,Bay County,106107,52254,53853
US,MI,26019,44.7379632,-85.8465451,MI,Benzie County,17462,8709,8753
US,MI,26021,41.8233021,-86.2298985,MI,Berrien County,155134,75899,79235
US,MI,26023,41.9375729,-84.8618004,MI,Branch County,43603,22540,21063
US,MI,26025,42.2251738,-84.7257695,MI,Calhoun County,134691,65829,68862
US,MI,26027,41.9853148,-85.8010332,MI,Cass County,51795,26062,25733
US,MI,26029,45.2104028,-84.7964063,MI,Charlevoix County,26172,12905,13267
US,MI,26031,45.3398172,-84.2917738,MI,Cheboygan County,25579,12719,12860
US,MI,26033,46.0037383,-83.6152191,MI,Chippewa County,38330,21209,17121
US,MI,26035,44.0091881,-84.6429678,MI,Clare County,30608,15126,15482
US,MI,26037,42.9975959,-84.3763408,MI,Clinton County,77245,38180,39065
US,MI,26039,44.5893901,-84.4414951,MI,Crawford County,13840,6983,6857
US,MI,26041,45.517178,-86.5260409,MI,Delta County,36570,18088,18482
US,MI,26043,46.1056694,-87.7724228,MI,Dickinson County,25889,12837,13052
US,MI,26045,42.6892554,-84.6062269,MI,Eaton County,108544,52977,55567
US,MI,26047,45.4671924,-84.7557049,MI,Emmet County,33091,16364,16727
US,MI,26049,43.071518,-83.4690215,MI,Genesee County,413090,199181,213909
US,MI,26051,44.0132332,-84.2285849,MI,Gladwin County,25367,12741,12626
US,MI,26053,46.2158495,-89.1296426,MI,Gogebic County,15650,8425,7225
US,MI,26055,44.8179285,-85.3864772,MI,Grand Traverse County,90715,44604,46111
US,MI,26057,43.1544465,-84.4171561,MI,Gratiot County,41676,22119,19557
US,MI,26059,42.0411203,-84.3844255,MI,Hillsdale County,46024,22964,23060
US,MI,26061,47.0830672,-88.1997975,MI,Houghton County,36565,19817,16748
US,MI,26063,44.0509728,-82.5375163,MI,Huron County,32021,15928,16093
US,MI,26065,42.4366782,-84.1560375,MI,Ingham County,284559,138257,146302
US,MI,26067,42.8173939,-84.8540399,MI,Ionia County,64126,33776,30350
US,MI,26069,44.3296466,-82.8447381,MI,Iosco County,25373,12625,12748
US,MI,26071,46.2774497,-88.2677966,MI,Iron County,11393,5619,5774
US,MI,26073,43.6577081,-84.6322943,MI,Isabella County,70574,34284,36290
US,MI,26075,42.3820364,-84.1579907,MI,Jackson County,159483,81632,77851
US,MI,26077,42.3690657,-85.3263478,MI,Kalamazoo County,258605,126410,132195
US,MI,26079,44.8123558,-84.9267737,MI,Kalkaska County,17259,8835,8424
US,MI,26081,42.9554626,-85.3225656,MI,Kent County,629352,309450,319902
US,MI,26083,47.3820361,-88.0176661,MI,Keweenaw County,2195,1138,1057
US,MI,26085,43.8653399,-85.6170274,MI,Lake County,11415,5841,5574
US,MI,26087,42.9163775,-83.0114984,MI,Lapeer County,88310,44709,43601
US,MI,26089,45.1700453,-85.5985888,MI,Leelanau County,21764,10686,11078
US,MI,26091,41.88083,-83.8042827,MI,Lenawee County,98673,49994,48679
US,MI,26093,42.4767678,-83.6794908,MI,Livingston County,185841,93057,92784
US,MI,26095,46.6153325,-85.281574,MI,Luce County,6451,3784,2667
US,MI,26097,45.9702678,-84.2664735,MI,Mackinac County,10998,5581,5417
US,MI,26099,42.6921156,-82.7209435,MI,Macomb County,859703,418599,441104
US,MI,26101,44.4708601,-85.8749063,MI,Manistee County,24465,12691,11774
US,MI,26103,46.3247033,-87.2093842,MI,Marquette County,67418,34041,33377
US,MI,26105,43.9848655,-86.118947,MI,Mason County,28755,14295,14460
US,MI,26107,43.6836338,-85.1236051,MI,Mecosta County,43259,21816,21443
US,MI,26109,45.3207335,-87.3325833,MI,Menominee County,23568,11917,11651
US,MI,26111,43.6195912,-84.1797725,MI,Midland County,83559,41100,42459
US,MI,26113,44.2218121,-84.9474734,MI,Missaukee County,15032,7685,7347
US,MI,26115,42.0246394,-83.2246922,MI,Monroe County,149945,73941,76004
US,MI,26117,43.2310943,-84.8508326,MI,Montcalm County,62922,32440,30482
US,MI,26119,45.0842696,-83.9492505,MI,Montmorency County,9317,4738,4579
US,MI,26121,43.2407082,-85.8187096,MI,Muskegon County,172148,85520,86628
US,MI,26123,43.3455369,-85.594188,MI,Newaygo County,47957,24143,23814
US,MI,26125,42.4654051,-83.0863841,MI,Oakland County,1235215,600602,634613
US,MI,26127,43.5222396,-86.0547268,MI,Oceana County,26152,13234,12918
US,MI,26129,44.3811326,-83.9238677,MI,Ogemaw County,21103,10562,10541
US,MI,26131,46.7343171,-89.0679799,MI,Ontonagon County,6165,3160,3005
US,MI,26133,43.8445712,-85.1298379,MI,Osceola County,23172,11692,11480
US,MI,26135,44.8031566,-83.96999,MI,Oscoda County,8374,4312,4062
US,MI,26137,44.8936233,-84.4709389,MI,Otsego County,24198,11924,12274
US,MI,26139,42.896622,-85.790956,MI,Ottawa County,276583,136286,140297
US,MI,26141,45.4917767,-83.3775064,MI,Presque Isle County,12955,6459,6496
US,MI,26143,44.3433797,-84.3947641,MI,Roscommon County,23900,11858,12042
US,MI,26145,43.3635233,-83.7186122,MI,Saginaw County,195201,94684,100517
US,MI,26151,43.4738504,-82.3754219,MI,Sanilac County,41761,20737,21024
US,MI,26153,46.0294217,-86.0017573,MI,Schoolcraft County,8186,4047,4139
US,MI,26155,42.9138494,-83.955917,MI,Shiawassee County,68800,33922,34878
US,MI,26147,43.1192967,-82.4148343,MI,St. Clair County,160069,79403,80666
US,MI,26149,41.9434599,-85.3015459,MI,St. Joseph County,60923,30276,30647
US,MI,26157,43.4519544,-83.1507661,MI,Tuscola County,54014,27123,26891
US,MI,26159,42.2854333,-85.7848922,MI,Van Buren County,75216,37361,37855
US,MI,26161,42.2585393,-83.5490787,MI,Washtenaw County,358082,177102,180980
US,MI,26163,42.4109868,-82.8370193,MI,Wayne County,1767593,849914,917679
US,MI,26165,44.2120278,-85.3655447,MI,Wexford County,32829,16433,16396
US,MN,27001,46.3680484,-93.1181408,MN,Aitkin County,15722,8016,7706
US,MN,27003,45.1703246,-93.038304,MN,Anoka County,341249,170762,170487
US,MN,27005,47.0318235,-95.2264404,MN,Becker County,33375,16693,16682
US,MN,27007,47.7031609,-94.4701555,MN,Beltrami County,45644,22773,22871
US,MN,27009,45.6104077,-93.8306891,MN,Benton County,39457,19736,19721
US,MN,27011,45.3769553,-96.2855643,MN,Big Stone County,5098,2494,2604
US,MN,27013,44.0857959,-93.8125765,MN,Blue Earth County,65524,32979,32545
US,MN,27015,44.1487794,-94.4329019,MN,Brown County,25327,12563,12764
US,MN,27017,46.7356681,-92.3335534,MN,Carlton County,35482,18491,16991
US,MN,27019,44.8386395,-93.5280585,MN,Carver County,97143,48209,48934
US,MN,27021,46.9606852,-93.8673231,MN,Cass County,28633,14588,14045
US,MN,27023,44.9273516,-95.2997981,MN,Chippewa County,12126,6006,6120
US,MN,27025,45.4121784,-92.7281523,MN,Chisago County,54041,27920,26121
US,MN,27027,46.7469519,-96.2498102,MN,Clay County,61402,30311,31091
US,MN,27029,47.4856105,-95.2825241,MN,Clearwater County,8764,4440,4324
US,MN,27031,47.9597901,-90.0163777,MN,Cook County,5215,2606,2609
US,MN,27033,43.9847787,-94.9086221,MN,Cottonwood County,11557,5669,5888
US,MN,27035,46.4298412,-93.8595494,MN,Crow Wing County,63321,31646,31675
US,MN,27037,44.6884415,-92.7702271,MN,Dakota County,411402,202188,209214
US,MN,27039,43.9282889,-92.7283954,MN,Dodge County,20361,10198,10163
US,MN,27041,45.8697098,-95.1447589,MN,Douglas County,36862,18388,18474
US,MN,27043,43.7092467,-93.6974194,MN,Faribault County,14119,7060,7059
US,MN,27045,43.7810314,-91.7523271,MN,Fillmore County,20877,10470,10407
US,MN,27047,43.752699,-93.1029381,MN,Freeborn County,30751,15350,15401
US,MN,27049,44.4726955,-92.3336228,MN,Goodhue County,46450,23180,23270
US,MN,27051,45.8345936,-95.7965525,MN,Grant County,5943,2972,2971
US,MN,27053,44.9381905,-93.2035407,MN,Hennepin County,1209265,596243,613022
US,MN,27055,43.8193701,-91.2871483,MN,Houston County,18791,9390,9401
US,MN,27057,47.324031,-94.7258523,MN,Hubbard County,20640,10302,10338
US,MN,27059,45.5316096,-93.0847717,MN,Isanti County,38461,19431,19030
US,MN,27061,47.3971835,-93.0801722,MN,Itasca County,45356,22906,22450
US,MN,27063,43.6022446,-94.9243261,MN,Jackson County,10163,5130,5033
US,MN,27065,46.0659638,-93.1582974,MN,Kanabec County,15918,8062,7856
US,MN,27067,45.137951,-94.797677,MN,Kandiyohi County,42510,21312,21198
US,MN,27069,48.5557464,-96.5273174,MN,Kittson County,4436,2243,2193
US,MN,27071,48.6189144,-93.2539115,MN,Koochiching County,12930,6461,6469
US,MN,27073,44.9582528,-95.9319164,MN,Lac qui Parle County,6916,3453,3463
US,MN,27075,47.3427684,-91.2364813,MN,Lake County,10721,5481,5240
US,MN,27077,48.5974535,-94.600591,MN,Lake of the Woods County,3901,2030,1871
US,MN,27079,44.4481915,-93.5540096,MN,Le Sueur County,27650,14005,13645
US,MN,27081,44.4535351,-96.1540152,MN,Lincoln County,5793,2914,2879
US,MN,27083,44.2424061,-95.5978501,MN,Lyon County,25670,12840,12830
US,MN,27087,47.3501248,-95.6357716,MN,Mahnomen County,5480,2765,2715
US,MN,27089,48.3472217,-95.7115154,MN,Marshall County,9406,4793,4613
US,MN,27091,43.7137681,-94.3258203,MN,Martin County,20193,9989,10204
US,MN,27085,44.9662366,-94.0323567,MN,McLeod County,35926,17807,18119
US,MN,27093,45.0769287,-94.3025512,MN,Meeker County,23094,11734,11360
US,MN,27095,46.1437504,-93.4664216,MN,Mille Lacs County,25788,12944,12844
US,MN,27097,46.043097,-93.854214,MN,Morrison County,32850,16617,16233
US,MN,27099,43.5155709,-92.4992004,MN,Mower County,39248,19689,19559
US,MN,27101,43.9770597,-95.5455145,MN,Murray County,8463,4197,4266
US,MN,27103,44.3446618,-93.9500351,MN,Nicollet County,33226,16586,16640
US,MN,27105,43.6422532,-95.5027558,MN,Nobles County,21729,11130,10599
US,MN,27107,47.2493312,-96.2318504,MN,Norman County,6638,3332,3306
US,MN,27109,43.8704289,-92.1805979,MN,Olmsted County,150104,73514,76590
US,MN,27111,46.3590031,-95.2179849,MN,Otter Tail County,57694,28994,28700
US,MN,27113,48.0350529,-95.6895148,MN,Pennington County,14156,7121,7035
US,MN,27115,46.0808388,-92.4810021,MN,Pine County,29067,15548,13519
US,MN,27117,43.9377364,-96.1292263,MN,Pipestone County,9285,4533,4752
US,MN,27119,47.577303,-95.6545666,MN,Polk County,31550,15931,15619
US,MN,27121,45.6896596,-95.2137502,MN,Pope County,10975,5543,5432
US,MN,27123,45.0570366,-92.9882616,MN,Ramsey County,531528,258733,272795
US,MN,27125,47.8991553,-95.9127935,MN,Red Lake County,4042,2056,1986
US,MN,27127,44.4180442,-94.9501036,MN,Redwood County,15578,7830,7748
US,MN,27129,44.7407877,-94.5894459,MN,Renville County,14995,7603,7392
US,MN,27131,44.4193087,-93.096178,MN,Rice County,65116,33132,31984
US,MN,27133,43.5800341,-96.1432605,MN,Rock County,9554,4668,4886
US,MN,27135,48.8458181,-95.2160429,MN,Roseau County,15609,7999,7610
US,MN,27139,44.606583,-93.3216521,MN,Scott County,139490,69528,69962
US,MN,27141,45.3187229,-93.5395429,MN,Sherburne County,91188,46610,44578
US,MN,27143,44.5237094,-93.9144864,MN,Sibley County,14957,7555,7402
US,MN,27137,47.9026274,-91.8392434,MN,St. Louis County,200353,100702,99651
US,MN,27145,45.3978171,-94.1049914,MN,Stearns County,153661,77355,76306
US,MN,27147,43.8771991,-93.0535187,MN,Steele County,36541,18073,18468
US,MN,27149,45.4936969,-95.7865521,MN,Stevens County,9762,4884,4878
US,MN,27151,45.1906618,-95.3266182,MN,Swift County,9483,4775,4708
US,MN,27153,45.8970986,-94.6983938,MN,Todd County,24335,12419,11916
US,MN,27155,45.8806722,-96.4229596,MN,Traverse County,3397,1635,1762
US,MN,27157,44.2607035,-91.9457683,MN,Wabasha County,21327,10627,10700
US,MN,27159,46.384316,-94.8224344,MN,Wadena County,13755,6809,6946
US,MN,27161,44.0187861,-93.444191,MN,Waseca County,19034,8996,10038
US,MN,27163,44.9244641,-92.7651856,MN,Washington County,248745,123093,125652
US,MN,27165,44.051497,-94.4119929,MN,Watonwan County,10996,5414,5582
US,MN,27167,46.1557039,-96.4197048,MN,Wilkin County,6479,3258,3221
US,MN,27169,43.8869688,-91.41475,MN,Winona County,51145,25238,25907
US,MN,27171,45.2618848,-93.5642535,MN,Wright County,129922,65372,64550
US,MN,27173,44.6865634,-95.451629,MN,Yellow Medicine County,10038,5115,4923
US,MO,29001,40.0922838,-92.4252288,MO,Adair County,25547,12038,13509
US,MO,29003,39.846587,-94.6752701,MO,Andrew County,17347,8574,8773
US,MO,29005,40.4299603,-95.3016125,MO,Atchison County,5380,2656,2724
US,MO,29007,39.2992363,-91.4567865,MO,Audrain County,25868,11710,14158
US,MO,29009,36.530601,-93.589853,MO,Barry County,35716,17958,17758
US,MO,29011,37.3734368,-94.0898134,MO,Barton County,12075,5991,6084
US,MO,29013,38.3112459,-94.1731248,MO,Bates County,16513,8097,8416
US,MO,29015,38.453338,-93.1227042,MO,Benton County,18825,9336,9489
US,MO,29017,37.5384525,-89.9283566,MO,Bollinger County,12282,6181,6101
US,MO,29019,39.2081799,-92.1481109,MO,Boone County,172773,83740,89033
US,MO,29021,39.6086531,-94.6595964,MO,Buchanan County,89415,44984,44431
US,MO,29023,36.7111668,-90.2210738,MO,Butler County,42887,20730,22157
US,MO,29025,39.5922937,-93.7996822,MO,Caldwell County,9057,4610,4447
US,MO,29027,38.8783261,-91.7020674,MO,Callaway County,44693,22841,21852
US,MO,29029,37.8589691,-92.5216963,MO,Camden County,44152,21895,22257
US,MO,29031,37.3872645,-89.4584492,MO,Cape Girardeau County,78089,37830,40259
US,MO,29033,39.3494589,-93.3265119,MO,Carroll County,9009,4366,4643
US,MO,29035,36.8722458,-90.713424,MO,Carter County,6249,2998,3251
US,MO,29037,38.4962079,-94.1329391,MO,Cass County,101324,49752,51572
US,MO,29039,37.6576677,-93.6752293,MO,Cedar County,13932,6940,6992
US,MO,29041,39.4815306,-92.7796472,MO,Chariton County,7615,3769,3846
US,MO,29043,37.0208228,-92.9785986,MO,Christian County,82053,39892,42161
US,MO,29045,40.3911123,-91.5510355,MO,Clark County,6860,3468,3392
US,MO,29047,39.3453834,-94.2174413,MO,Clay County,233135,114237,118898
US,MO,29049,39.7437,-94.2262591,MO,Clinton County,20494,10286,10208
US,MO,29051,38.522579,-92.0367333,MO,Cole County,76603,38731,37872
US,MO,29053,38.8998216,-92.6011868,MO,Cooper County,17613,9266,8347
US,MO,29055,38.189178,-91.1561411,MO,Crawford County,24545,12098,12447
US,MO,29057,37.3331152,-93.6887191,MO,Dade County,7590,3871,3719
US,MO,29059,37.5396281,-92.9218205,MO,Dallas County,16508,8209,8299
US,MO,29061,39.9769082,-93.7849744,MO,Daviess County,8257,4172,4085
US,MO,29063,39.7712526,-94.2226988,MO,DeKalb County,12706,8016,4690
US,MO,29065,37.6331708,-91.3422724,MO,Dent County,15578,7764,7814
US,MO,29067,36.9697955,-92.1999904,MO,Douglas County,13467,6749,6718
US,MO,29069,36.5610316,-89.9627945,MO,Dunklin County,31271,15043,16228
US,MO,29071,38.4852058,-90.7447434,MO,Franklin County,102063,50830,51233
US,MO,29073,38.6382399,-91.4338139,MO,Gasconade County,14875,7389,7486
US,MO,29075,40.2518473,-94.3075287,MO,Gentry County,6745,3242,3503
US,MO,29077,37.1727354,-93.0882598,MO,Greene County,285449,139153,146296
US,MO,29079,40.045531,-93.427344,MO,Grundy County,10231,4950,5281
US,MO,29081,40.5099786,-93.8784216,MO,Harrison County,8649,4305,4344
US,MO,29083,38.5164111,-93.5175527,MO,Henry County,21930,10847,11083
US,MO,29085,37.9736228,-93.1684942,MO,Hickory County,9267,4523,4744
US,MO,29087,40.1352823,-95.117601,MO,Holt County,4537,2274,2263
US,MO,29089,39.2401902,-92.5882643,MO,Howard County,10148,5075,5073
US,MO,29091,36.9979444,-91.6888408,MO,Howell County,40265,19617,20648
US,MO,29093,37.6162278,-90.570057,MO,Iron County,10220,5071,5149
US,MO,29095,39.0200945,-94.1194359,MO,Jackson County,683643,330662,352981
US,AK,02013,55.0952467,-160.0272746,AK,Aleutians East Borough,3299,2145,1154
US,AK,02016,51.9594469,178.338813,AK,Aleutians West Census Area,5714,3578,2136
US,AK,02020,61.2327493,-148.6669728,AK,Anchorage Municipality,299321,152681,146640
US,AK,02050,61.350537,-156.4386201,AK,Bethel Census Area,17885,9358,8527
US,AK,02060,58.6917905,-156.6628298,AK,Bristol Bay Borough,942,536,406
US,AK,02068,63.6811063,-150.0265438,AK,Denali Borough,2125,1142,983
US,AK,02070,59.2146456,-158.0816278,AK,Dillingham Census Area,4980,2564,2416
US,AK,02090,64.6252976,-145.1308903,AK,Fairbanks North Star Borough,100150,53774,46376
US,AK,02100,59.2106378,-135.4117493,AK,Haines Borough,2528,1429,1099
US,AK,02105,57.3784915,-134.2793913,AK,Hoonah-Angoon Census Area,2107,1084,1023
US,AK,02110,58.2837494,-133.7869735,AK,Juneau City and Borough,32524,16648,15876
US,AK,02122,60.6153549,-149.3727833,AK,Kenai Peninsula Borough,57637,30103,27534
US,AK,02130,55.4499378,-131.1066847,AK,Ketchikan Gateway Borough,13715,7038,6677
US,AK,02150,57.811219,-152.3506332,AK,Kodiak Island Borough,13918,7338,6580
US,AK,02164,60.0338618,-155.4322318,AK,Lake and Peninsula Borough,1411,720,691
US,AK,02170,62.0062263,-147.5314722,AK,Matanuska-Susitna Borough,98679,51495,47184
US,AK,02180,64.2106499,-160.3134097,AK,Nome Census Area,9879,5317,4562
US,AK,02185,70.1018855,-149.8673597,AK,North Slope Borough,9681,6114,3567
US,AK,02188,67.1337559,-157.1968152,AK,Northwest Arctic Borough,7723,4181,3542
US,AK,02195,56.8128218,-132.9337068,AK,Petersburg Census Area,3196,1712,1484
US,AK,02198,55.9547008,-130.1839812,AK,Prince of Wales-Hyder Census Area,6374,3444,2930
US,AK,02220,57.0501687,-135.1411339,AK,Sitka City and Borough,8921,4564,4357
US,AK,02230,59.5750974,-135.3354181,AK,Skagway Municipality,1014,541,473
US,AK,02240,63.6472192,-142.8271144,AK,Southeast Fairbanks Census Area,6970,3876,3094
US,AK,02261,61.2709072,-142.6055157,AK,Valdez-Cordova Census Area,9522,5065,4457
US,AK,02275,56.1807793,-132.0267878,AK,Wrangell City and Borough,2401,1218,1183
US,AK,02282,60.0198721,-140.4145657,AK,Yakutat City and Borough,646,346,300
US,AK,02290,65.2875255,-144.7143114,AK,Yukon-Koyukuk Census Area,5600,3026,2574
US,AL,01001,32.4460719,-86.418657,AL,Autauga County,55049,26877,28172
US,AL,01003,30.4454758,-87.4391914,AL,Baldwin County,199510,97371,102139
US,AL,01005,31.9476401,-85.1136415,AL,Barbour County,26614,14239,12375
US,AL,01007,32.9228355,-86.9327564,AL,Bibb County,22572,12084,10488
US,AL,01009,33.9866335,-86.3615615,AL,Blount County,57704,28572,29132
US,AL,01011,32.1157274,-85.5267341,AL,Bullock County,10552,5719,4833
US,AL,01013,31.895331,-86.495769,AL,Butler County,20280,9522,10758
US,AL,01015,33.8977247,-85.5692624,AL,Calhoun County,115883,55742,60141
US,AL,01017,32.7658976,-85.1492405,AL,Chambers County,34018,16299,17719
US,AL,01019,34.0221093,-85.4809201,AL,Cherokee County,25897,12883,13014
US,AL,01021,32.739219,-86.4678459,AL,Chilton County,43817,21559,22258
US,AL,01023,32.2419669,-88.0785241,AL,Choctaw County,13287,6349,6938
US,AL,01025,31.710279,-87.6172671,AL,Clarke County,24847,11738,13109
US,AL,01027,33.3003255,-85.6861759,AL,Clay County,13483,6532,6951
US,AL,01029,33.5269418,-85.3297298,AL,Cleburne County,14991,7423,7568
US,AL,01031,31.3389539,-85.805078,AL,Coffee County,50991,25210,25781
US,AL,01033,34.7474446,-87.4779901,AL,Colbert County,54377,26271,28106
US,AL,01035,31.3569923,-86.7625972,AL,Conecuh County,12697,6028,6669
US,AL,01037,33.0550787,-86.0255439,AL,Coosa County,10864,5355,5509
US,AL,01039,31.3297465,-86.2164727,AL,Covington County,37729,18219,19510
US,AL,01041,31.6941384,-86.2057059,AL,Crenshaw County,13896,6863,7033
US,AL,01043,34.2747823,-86.4794129,AL,Cullman County,81316,40200,41116
US,AL,01045,31.2983176,-85.4475355,AL,Dale County,49607,24443,25164
US,AL,01047,32.3184453,-86.879088,AL,Dallas County,41426,19128,22298
US,AL,01049,34.6068469,-85.5682124,AL,DeKalb County,70937,35134,35803
US,AL,01051,32.550162,-85.903935,AL,Elmore County,80957,39347,41610
US,AL,01053,31.0544809,-86.8519601,AL,Escambia County,37875,19390,18485
US,AL,01055,33.9634626,-85.7695474,AL,Etowah County,103363,50007,53356
US,AL,01057,33.6593582,-87.518339,AL,Fayette County,16783,8311,8472
US,AL,01059,34.5248512,-87.5464105,AL,Franklin County,31573,15553,16020
US,AL,01061,31.1174653,-85.5183702,AL,Geneva County,26765,13072,13693
US,AL,01063,32.9733841,-87.8167767,AL,Greene County,8587,4092,4495
US,AL,01065,32.7781709,-87.5298175,AL,Hale County,15159,7121,8038
US,AL,01067,31.5545179,-85.1334267,AL,Henry County,17187,8301,8886
US,AL,01069,31.2953514,-85.1102016,AL,Houston County,103891,49782,54109
US,AL,01071,34.9142655,-85.610089,AL,Jackson County,52608,25763,26845
US,AL,01073,33.549248,-86.5296518,AL,Jefferson County,659096,311971,347125
US,AL,01075,33.5702661,-88.0031824,AL,Lamar County,14066,6813,7253
US,AL,01077,34.882826,-87.252685,AL,Lauderdale County,92641,44261,48380
US,AL,01079,34.5403863,-87.1253469,AL,Lawrence County,33433,16272,17161
US,AL,01081,32.5255095,-85.0181038,AL,Lee County,153947,76027,77920
US,AL,01083,34.9514056,-86.8052479,AL,Limestone County,90257,45146,45111
US,AL,01085,32.1614121,-86.4483717,AL,Lowndes County,10565,5045,5520
US,AL,01087,32.4353008,-85.5184758,AL,Macon County,19684,9072,10612
US,AL,01089,34.5364105,-86.348828,AL,Madison County,349973,171085,178888
US,AL,01091,32.2964003,-87.5860747,AL,Marengo County,20066,9433,10633
US,AL,01093,34.2295636,-87.6625319,AL,Marion County,30239,14958,15281
US,AL,01095,34.2717581,-86.1142114,AL,Marshall County,94534,46597,47937
US,AL,01097,31.1285039,-87.9815958,AL,Mobile County,414291,198297,215994
US,AL,01099,31.7554501,-87.1028419,AL,Monroe County,21975,10522,11453
US,AL,01101,32.3466384,-86.0197743,AL,Montgomery County,227392,107740,119652
US,AL,01103,34.5268588,-86.5692729,AL,Morgan County,119555,58849,60706
US,AL,01105,32.6030512,-87.1421022,AL,Perry County,9856,4671,5185
US,AL,01107,33.3285967,-87.8694398,AL,Pickens County,20042,9877,10165
US,AL,01109,31.7172484,-85.7560279,AL,Pike County,33277,15865,17412
US,AL,01111,33.1540156,-85.2721528,AL,Randolph County,22615,11025,11590
US,AL,01113,32.2703731,-84.9801167,AL,Russell County,58636,28519,30117
US,AL,01117,33.3479455,-86.3867047,AL,Shelby County,205951,100098,105853
US,AL,01115,33.7757489,-86.1080556,AL,St. Clair County,86576,43498,43078
US,AL,01119,32.5289343,-88.0275255,AL,Sumter County,13285,6135,7150
US,AL,01121,33.5740588,-85.8341239,AL,Talladega County,81057,39342,41715
US,AL,01123,32.8135883,-85.6476888,AL,Tallapoosa County,40958,19395,21563
US,AL,01125,33.25485,-87.1123475,AL,Tuscaloosa County,202471,97672,104799
US,AL,01127,33.8182735,-87.0205524,AL,Walker County,65593,31944,33649
US,AL,01129,31.4014135,-87.9630842,AL,Washington County,16909,8389,8520
US,AL,01131,31.9537889,-87.0055256,AL,Wilcox County,11119,5362,5757
US,AL,01133,34.2417075,-87.141064,AL,Winston County,24013,11814,12199
US,AR,05001,34.2769038,-91.1655532,AR,Arkansas County,18569,8798,9771
US,AR,05003,33.324244,-91.5008406,AR,Ashley County,20989,10185,10804
US,AR,05005,36.4393893,-92.2031199,AR,Baxter County,40992,19848,21144
US,AR,05007,36.4591439,-93.9087557,AR,Benton County,245231,121493,123738
US,AR,05009,36.4568511,-92.8995857,AR,Boone County,37301,18285,19016
US,AR,05011,33.5766395,-92.0086868,AR,Bradley County,11096,5485,5611
US,AR,05013,33.5406233,-92.4056869,AR,Calhoun County,5210,2679,2531
US,AR,05015,36.4518397,-93.3727305,AR,Carroll County,27690,13639,14051
US,AR,05017,33.2597143,-91.1683015,AR,Chicot County,11189,5452,5737
US,AR,05019,34.0848258,-92.9508798,AR,Clark County,22684,10769,11915
US,AR,05021,36.353592,-90.1654588,AR,Clay County,15202,7490,7712
US,AR,05023,35.6277934,-91.8446564,AR,Cleburne County,25587,12731,12856
US,AR,05025,33.995244,-92.0259659,AR,Cleveland County,8421,4216,4205
US,AR,05027,33.2815556,-93.0075169,AR,Columbia County,24168,11514,12654
US,AR,05029,35.341822,-92.5357639,AR,Conway County,21060,10306,10754
US,AR,05031,35.7478872,-90.3217883,AR,Craighead County,102884,50128,52756
US,AR,05033,35.5165033,-94.053414,AR,Crawford County,61927,30446,31481
US,AR,05035,35.1326126,-90.1052173,AR,Crittenden County,49511,23382,26129
US,AR,05037,35.2863059,-90.5847536,AR,Cross County,17329,8379,8950
US,AR,05039,33.8116692,-92.3724302,AR,Dallas County,7738,3748,3990
US,AR,05041,33.9859842,-91.091162,AR,Desha County,12234,5608,6626
US,AR,05043,33.6140787,-91.54531,AR,Drew County,18688,9034,9654
US,AR,05045,35.0899354,-92.1473904,AR,Faulkner County,120417,59053,61364
US,AR,05047,35.5178109,-93.7582619,AR,Franklin County,17799,8795,9004
US,AR,05049,36.4127398,-91.5073331,AR,Fulton County,12186,6031,6155
US,AR,05051,34.5107022,-92.887221,AR,Garland County,97119,46875,50244
US,AR,05053,34.3260009,-92.2757066,AR,Grant County,18046,8867,9179
US,AR,05055,36.133962,-90.3358286,AR,Greene County,43745,21558,22187
US,AR,05057,33.5777921,-93.5101456,AR,Hempstead County,22208,10653,11555
US,AR,05059,34.3830611,-92.7233571,AR,Hot Spring County,33440,17232,16208
US,AR,05061,33.9519651,-93.8340551,AR,Howard County,13487,6493,6994
US,AR,05063,35.808521,-91.3276028,AR,Independence County,37030,17995,19035
US,AR,05065,36.2216472,-91.7230796,AR,Izard County,13461,6980,6481
US,AR,05067,35.4653966,-91.0829595,AR,Jackson County,17495,8579,8916
US,AR,05069,34.2070254,-91.6728768,AR,Jefferson County,72385,35626,36759
US,AR,05071,35.456179,-93.3114037,AR,Johnson County,26025,12928,13097
US,AR,05073,33.3621657,-93.4653341,AR,Lafayette County,7127,3498,3629
US,AR,05075,36.0877922,-90.8704118,AR,Lawrence County,16915,8310,8605
US,AR,05077,34.8175162,-90.628389,AR,Lee County,9781,5575,4206
US,AR,05079,34.0310701,-91.5681193,AR,Lincoln County,13935,8622,5313
US,AR,05081,33.6282451,-93.9782638,AR,Little River County,12616,6266,6350
US,AR,05083,35.2937392,-93.3729683,AR,Logan County,21935,10961,10974
US,AR,05085,34.7915553,-91.712972,AR,Lonoke County,71279,35076,36203
US,AR,05087,36.0767182,-93.5821328,AR,Madison County,15761,7918,7843
US,AR,05089,36.1612075,-92.5414052,AR,Marion County,16404,8105,8299
US,AR,05091,33.2156641,-93.8165255,AR,Miller County,43666,21577,22089
US,AR,05093,35.9476091,-89.7744708,AR,Mississippi County,44199,21480,22719
US,AR,05095,34.4848617,-91.1144683,AR,Monroe County,7542,3509,4033
US,AR,05097,34.6428223,-93.4891259,AR,Montgomery County,9100,4529,4571
US,AR,05099,33.684793,-93.1797349,AR,Nevada County,8668,4489,4179
US,AR,05101,36.052831,-93.0245202,AR,Newton County,7988,4013,3975
US,AR,05103,33.7218919,-92.6087193,AR,Ouachita County,24728,11647,13081
US,AR,05105,34.9860366,-92.6021491,AR,Perry County,10246,5104,5142
US,AR,05107,34.5405515,-90.5874353,AR,Phillips County,19929,9353,10576
US,AR,05109,34.0202723,-93.454327,AR,Pike County,11017,5412,5605
US,AR,05111,35.6118252,-90.3090124,AR,Poinsett County,24131,11833,12298
US,AR,05113,34.6473093,-94.0433494,AR,Polk County,20290,9887,10403
US,AR,05115,35.2628828,-92.8887715,AR,Pope County,63107,31051,32056
US,AR,05117,34.8013609,-91.4114997,AR,Prairie County,8334,4093,4241
US,AR,05119,34.885524,-92.0821256,AR,Pulaski County,391806,187819,203987
US,AR,05121,36.4282953,-90.8108568,AR,Randolph County,17584,8679,8905
US,AR,05125,34.5346235,-92.2863768,AR,Saline County,115577,56728,58849
US,AR,05127,34.811889,-93.8704466,AR,Scott County,10661,5397,5264
US,AR,05129,35.8268473,-92.4605855,AR,Searcy County,7938,3974,3964
US,AR,05131,35.2228028,-94.1126626,AR,Sebastian County,127351,62214,65137
US,AR,05133,33.8466875,-94.1191959,AR,Sevier County,17193,8586,8607
US,AR,05135,36.3784364,-91.354828,AR,Sharp County,17027,8345,8682
US,AR,05123,35.0480195,-90.4397671,AR,St. Francis County,27023,14625,12398
US,AR,05137,35.8279284,-91.9395535,AR,Stone County,12503,6341,6162
US,AR,05139,33.0691673,-92.1696187,AR,Union County,40334,19599,20735
US,AR,05141,35.5897765,-92.2656157,AR,Van Buren County,16892,8363,8529
US,AR,05143,36.2053482,-93.957926,AR,Washington County,219930,109797,110133
US,AR,05145,35.3491903,-91.4539615,AR,White County,78823,38642,40181
US,AR,05147,35.2283419,-91.1506675,AR,Woodruff County,6873,3266,3607
US,AR,05149,35.1744753,-93.0939808,AR,Yell County,21716,10731,10985
US,AZ,04001,35.6807365,-109.0538646,AZ,Apache County,72346,35740,36606
US,AZ,04003,32.2437128,-109.324216,AZ,Cochise County,128177,65281,62896
US,AZ,04005,36.4954533,-110.90001,AZ,Coconino County,138064,68229,69835
US,AZ,04007,33.5626409,-110.2665781,AZ,Gila County,53179,26432,26747
US,AZ,04009,32.6273007,-109.4307135,AZ,Graham County,37529,20148,17381
US,AZ,04011,32.6999795,-109.1249259,AZ,Greenlee County,9224,4905,4319
US,AZ,04012,34.0206725,-113.4506516,AZ,La Paz County,20304,10366,9938
US,AZ,04013,33.7127644,-111.478901,AZ,Maricopa County,4088549,2021817,2066732
US,AZ,04015,36.9324078,-112.7751573,AZ,Mohave County,203629,102473,101156
US,AZ,04017,34.1236537,-109.8775204,AZ,Navajo County,108209,54271,53938
US,AZ,04019,31.8566417,-110.5697982,AZ,Pima County,1003338,493568,509770
US,AZ,04021,32.8239902,-110.5866695,AZ,Pinal County,397604,207471,190133
US,AZ,04023,31.4671563,-110.5709305,AZ,Santa Cruz County,46547,22284,24263
US,AZ,04025,34.5875069,-111.6724096,AZ,Yavapai County,218586,106905,111681
US,AZ,04027,33.0564033,-113.5236164,AZ,Yuma County,203292,104216,99076
US,CA,06001,37.6343064,-121.6163068,CA,Alameda County,1605217,786730,818487
US,CA,06003,38.5647591,-119.7495785,CA,Alpine County,1184,692,492
US,CA,06005,38.5496993,-120.2509786,CA,Amador County,36963,19839,17124
US,CA,06007,39.6210376,-121.2481602,CA,Butte County,223877,110926,112951
US,CA,06009,38.419146,-120.2020282,CA,Calaveras County,44787,22156,22631
US,CA,06011,39.0322121,-121.9087779,CA,Colusa County,21361,11097,10264
US,CA,06013,37.9011591,-121.5807088,CA,Contra Costa County,1107925,540671,567254
US,CA,06015,41.6080053,-123.7695423,CA,Del Norte County,27628,15168,12460
US,CA,06017,38.9096935,-119.9331821,CA,El Dorado County,183000,91349,91651
US,CA,06019,36.9249775,-118.5491857,CA,Fresno County,963160,480527,482633
US,CA,06021,39.7422305,-122.0125358,CA,Glenn County,27976,14216,13760
US,CA,06023,40.9811429,-123.4902949,CA,Humboldt County,135182,67449,67733
US,CA,06025,32.794562,-114.5518584,CA,Imperial County,178807,91324,87483
US,CA,06027,36.2706836,-116.8134914,CA,Inyo County,18326,9235,9091
US,CA,06029,35.6043775,-117.6480289,CA,Kern County,871337,447079,424258
US,CA,06031,36.3667811,-119.5500144,CA,Kings County,150261,83207,67054
US,CA,06033,38.8477883,-122.4648516,CA,Lake County,64076,31982,32094
US,CA,06035,39.9066739,-120.0680287,CA,Lassen County,31945,21191,10754
US,CA,06037,34.1148419,-117.7002101,CA,Los Angeles County,10057155,4954616,5102539
US,CA,06039,37.4832879,-119.2889858,CA,Madera County,153366,74035,79331
US,CA,06041,37.8617363,-122.4310508,CA,Marin County,259358,126745,132613
US,CA,06043,37.7839881,-119.5740682,CA,Mariposa County,17645,8881,8764
US,CA,06045,39.3492373,-123.0759296,CA,Mendocino County,87409,43634,43775
US,CA,06047,37.2233559,-120.2252142,CA,Merced County,265001,133782,131219
US,CA,06049,41.3746343,-120.1065408,CA,Modoc County,9033,4637,4396
US,CA,06051,37.738364,-118.4749725,CA,Mono County,14051,7551,6500
US,CA,06053,35.9761425,-120.697053,CA,Monterey County,430201,219883,210318
US,CA,06055,38.3643718,-122.1072883,CA,Napa County,140823,70010,70813
US,CA,06057,39.332568,-120.0845247,CA,Nevada County,98639,48833,49806
US,CA,06059,33.6518163,-117.5071044,CA,Orange County,3132211,1546687,1585524
US,CA,06061,39.2497376,-120.0119813,CA,Placer County,370571,180790,189781
US,CA,06063,39.9140149,-120.3358401,CA,Plumas County,18754,9484,9270
US,CA,06065,34.013623,-114.4708303,CA,Riverside County,2323892,1156126,1167766
US,CA,06067,38.5212587,-121.0585673,CA,Sacramento County,1479300,722955,756345
US,CA,06069,36.5362472,-120.9697622,CA,San Benito County,58051,29062,28989
US,CA,06071,34.190238,-114.2945493,CA,San Bernardino County,2106754,1047925,1058829
US,CA,06073,32.6308513,-116.2137693,CA,San Diego County,3253356,1635137,1618219
US,CA,06075,37.7231655,-122.3685424,CA,San Francisco County,850282,433226,417056
US,CA,06077,37.7661191,-120.9522767,CA,San Joaquin County,714860,355719,359141
US,CA,06079,35.2077026,-119.9288462,CA,San Luis Obispo County,278680,141572,137108
US,NY,36049,43.7826353,-75.2189395,NY,Lewis County,27107,13671,13436
US,NY,36051,42.6247406,-77.5343402,NY,Livingston County,64622,32439,32183
US,NY,36053,42.7769498,-75.343208,NY,Madison County,72089,35429,36660
US,NY,36055,43.0756027,-77.3859302,NY,Monroe County,749236,361925,387311
US,NY,36057,42.934388,-74.1244106,NY,Montgomery County,49667,24468,25199
US,NY,36059,40.671619,-73.4260324,NY,Nassau County,1356801,658161,698640
US,NY,36061,40.874466,-73.9083483,NY,New York County,1634989,773232,861757
US,NY,36063,43.2117268,-78.4757281,NY,Niagara County,213374,103798,109576
US,NY,36065,43.3705502,-75.1139135,NY,Oneida County,232858,116027,116831
US,NY,36067,42.9467336,-75.9326565,NY,Onondaga County,468050,226022,242028
US,NY,36069,42.8820622,-76.9721028,NY,Ontario County,109450,53705,55745
US,NY,36071,41.3592208,-73.9658779,NY,Orange County,376242,188285,187957
US,NY,36073,43.2540951,-78.0215138,NY,Orleans County,41938,20887,21051
US,NY,36075,43.5650975,-75.8502325,NY,Oswego County,120513,60384,60129
US,NY,36077,42.564736,-74.7132679,NY,Otsego County,60979,29517,31462
US,NY,36079,41.466427,-73.5356659,NY,Putnam County,99408,49388,50020
US,NY,36081,40.7393594,-73.7035171,NY,Queens County,2310011,1120010,1190001
US,NY,36083,42.8863988,-73.3204753,NY,Rensselaer County,159959,78890,81069
US,NY,36085,40.6017809,-74.0514542,NY,Richmond County,473324,229095,244229
US,NY,36087,41.0263909,-73.9099866,NY,Rockland County,322642,158136,164506
US,NY,36091,43.1007502,-73.5805555,NY,Saratoga County,224929,111025,113904
US,NY,36093,42.7848813,-73.8337305,NY,Schenectady County,154845,75383,79462
US,NY,36095,42.6751231,-74.2066417,NY,Schoharie County,31667,15789,15878
US,NY,36097,42.2657781,-76.6930797,NY,Schuyler County,18336,9183,9153
US,NY,36099,42.5764108,-76.6541165,NY,Seneca County,35036,18470,16566
US,NY,36089,44.7404116,-74.635568,NY,St. Lawrence County,111529,56822,54707
US,NY,36101,42.1753662,-76.9945776,NY,Steuben County,98151,48750,49401
US,NY,36103,41.0686722,-71.8938408,NY,Suffolk County,1498130,737351,760779
US,NY,36105,41.5795739,-74.4114635,NY,Sullivan County,75818,38803,37015
US,NY,36107,42.0538305,-76.1213255,NY,Tioga County,49649,24549,25100
US,NY,36109,42.4684596,-76.2738158,NY,Tompkins County,104268,51285,52983
US,NY,36111,42.0683298,-73.9352358,NY,Ulster County,180505,89631,90874
US,NY,36113,43.6905607,-73.5497434,NY,Warren County,64911,31835,33076
US,NY,36115,43.3644384,-73.2561946,NY,Washington County,62465,32308,30157
US,NY,36117,43.0813277,-76.7339834,NY,Wayne County,91874,45514,46360
US,NY,36119,41.2263131,-73.5043023,NY,Westchester County,969229,468336,500893
US,NY,36121,42.7220103,-77.9852513,NY,Wyoming County,41239,22339,18900
US,NY,36123,42.4948216,-76.9404424,NY,Yates County,25106,12110,12996
US,OH,39001,38.7103836,-83.3120775,OH,Adams County,28111,13972,14139
US,OH,39003,40.8701841,-83.8901791,OH,Allen County,104664,52851,51813
US,OH,39005,40.7635213,-82.1766748,OH,Ashland County,53343,26055,27288
US,OH,39007,41.9593194,-80.5330923,OH,Ashtabula County,99175,49847,49328
US,OH,39009,39.2405081,-81.777931,OH,Athens County,65103,32492,32611
US,OH,39011,40.5795962,-83.9266786,OH,Auglaize County,45871,22865,23006
US,OH,39013,40.1086772,-80.7129329,OH,Belmont County,69228,35300,33928
US,OH,39015,38.9700781,-83.7210104,OH,Brown County,44059,21855,22204
US,OH,39017,39.5386245,-84.3386038,OH,Butler County,373638,183146,190492
US,OH,39019,40.5815035,-80.9380615,OH,Carroll County,28108,14029,14079
US,OH,39021,40.1007077,-83.5304635,OH,Champaign County,39175,19599,19576
US,OH,39023,39.8993246,-83.5750301,OH,Clark County,136175,65897,70278
US,OH,39025,39.2167202,-84.0236183,OH,Clermont County,201092,99198,101894
US,OH,39027,39.513095,-83.5894261,OH,Clinton County,41854,20761,21093
US,OH,39029,40.8472319,-80.5321722,OH,Columbiana County,105230,52906,52324
US,OH,39031,40.256615,-81.6798509,OH,Coshocton County,36665,18231,18434
US,OH,39033,40.7854861,-82.7347043,OH,Crawford County,42485,20785,21700
US,OH,39035,41.4253194,-81.3908007,OH,Cuyahoga County,1258710,599319,659391
US,OH,39037,40.1454177,-84.4417178,OH,Darke County,52185,25632,26553
US,OH,39039,41.2135791,-84.2549652,OH,Defiance County,38488,19165,19323
US,OH,39041,40.1397506,-82.7935066,OH,Delaware County,188996,93421,95575
US,OH,39043,41.4090362,-82.3537607,OH,Erie County,75808,37092,38716
US,OH,39045,39.7544668,-82.4172149,OH,Fairfield County,150163,74713,75450
US,OH,39047,39.6142974,-83.3229218,OH,Fayette County,28719,14101,14618
US,OH,39049,39.9925033,-82.7830784,OH,Franklin County,1232118,600802,631316
US,OH,39051,41.5867791,-83.8856856,OH,Fulton County,42466,21055,21411
US,OH,39053,38.9615971,-82.1421697,OH,Gallia County,30376,14839,15537
US,OH,39055,41.6021847,-81.0120031,OH,Geauga County,94020,46372,47648
US,OH,39057,39.6373608,-83.7081088,OH,Greene County,164325,80712,83613
US,OH,39059,39.9858582,-81.267099,OH,Guernsey County,39478,19497,19981
US,OH,39061,39.2777963,-84.2695292,OH,Hamilton County,805965,387906,418059
US,OH,39063,41.1600225,-83.4271152,OH,Hancock County,75672,37160,38512
US,OH,39065,40.5225407,-83.4747798,OH,Hardin County,31652,15787,15865
US,OH,39067,40.2293758,-80.9096257,OH,Harrison County,15521,7678,7843
US,OH,39069,41.2172889,-83.9079609,OH,Henry County,27890,13745,14145
US,OH,39071,39.3481778,-83.3819492,OH,Highland County,43109,21245,21864
US,OH,39073,39.5078171,-82.2262613,OH,Hocking County,28690,14246,14444
US,OH,39075,40.5711055,-81.6925478,OH,Holmes County,43702,21854,21848
US,OH,39077,41.2659435,-82.3782544,OH,Huron County,58704,29041,29663
US,OH,39079,39.0289308,-82.4861463,OH,Jackson County,32717,15979,16738
US,OH,39081,40.4750122,-80.598791,OH,Jefferson County,67607,32771,34836
US,OH,39083,40.4244213,-82.2184954,OH,Knox County,60878,29853,31025
US,OH,39085,41.7511641,-81.0194752,OH,Lake County,229266,111975,117291
US,OH,39087,38.4850428,-82.3251742,OH,Lawrence County,61503,30191,31312
US,OH,39089,39.9779393,-82.2302565,OH,Licking County,169762,83232,86530
US,OH,39091,40.3849995,-83.5557069,OH,Logan County,45388,22470,22918
US,OH,39093,41.3371602,-81.8858355,OH,Lorain County,304091,149762,154329
US,OH,39095,41.8246157,-83.1637572,OH,Lucas County,434800,211033,223767
US,OH,39097,39.7037986,-83.2650032,OH,Madison County,43537,23807,19730
US,OH,39099,40.9817828,-80.5315989,OH,Mahoning County,233015,113472,119543
US,OH,39101,40.6765169,-82.91351,OH,Marion County,65620,35004,30616
US,OH,39103,41.0955314,-81.6999659,OH,Medina County,175543,86786,88757
US,OH,39105,39.1304225,-81.7940027,OH,Meigs County,23345,11465,11880
US,OH,39107,40.5625348,-84.5034413,OH,Mercer County,40886,20558,20328
US,OH,39109,40.1402787,-84.076137,OH,Miami County,103864,51232,52632
US,OH,39111,39.8125349,-80.8678801,OH,Monroe County,14442,7220,7222
US,OH,39113,39.8617819,-84.0784166,OH,Montgomery County,532761,256454,276307
US,OH,39115,39.6357285,-81.690194,OH,Morgan County,14857,7392,7465
US,OH,39117,40.5934019,-82.6574228,OH,Morrow County,35032,17580,17452
US,OH,39119,40.0266708,-81.7364635,OH,Muskingum County,85991,41858,44133
US,OH,39121,39.9117744,-81.2977871,OH,Noble County,14429,8821,5608
US,OH,39123,41.5365181,-82.7132546,OH,Ottawa County,40981,20201,20780
US,OH,39125,41.096874,-84.355839,OH,Paulding County,19057,9493,9564
US,OH,39127,39.8076137,-82.077942,OH,Perry County,35947,17953,17994
US,OH,39129,39.5207802,-82.7814194,OH,Pickaway County,56804,30071,26733
US,OH,39131,38.9969872,-82.8407934,OH,Pike County,28298,14069,14229
US,OH,39133,41.3128877,-81.0298619,OH,Portage County,161796,79194,82602
US,OH,39135,39.6360049,-84.5034935,OH,Preble County,41561,20594,20967
US,OH,39137,40.9279411,-83.9279869,OH,Putnam County,34116,17025,17091
US,OH,39139,40.6915622,-82.3711459,OH,Richland County,121888,61816,60072
US,OH,39141,39.3159538,-82.7952779,OH,Ross County,77193,40501,36692
US,OH,39143,41.2665879,-82.8441054,OH,Sandusky County,59870,29557,30313
US,OH,39145,38.8377977,-82.6953828,OH,Scioto County,77366,38260,39106
US,OH,39147,41.0651325,-82.8864184,OH,Seneca County,55711,27858,27853
US,OH,39149,40.3826258,-84.0222019,OH,Shelby County,48949,24679,24270
US,OH,39151,40.9114692,-81.0908082,OH,Stark County,374762,181928,192834
US,OH,39153,41.1934882,-81.3965567,OH,Summit County,541372,262454,278918
US,OH,39155,41.23887,-80.5265026,OH,Trumbull County,204908,99872,105036
US,OH,39157,40.3867928,-81.2920826,OH,Tuscarawas County,92579,45527,47052
US,OH,39159,40.1395753,-83.1769037,OH,Union County,53955,25813,28142
US,OH,39161,40.8531511,-84.3449585,OH,Van Wert County,28501,13966,14535
US,OH,39163,39.2510695,-82.3233602,OH,Vinton County,13128,6617,6511
US,OH,39165,39.4178481,-84.0254945,OH,Warren County,222184,111615,110569
US,OH,39167,39.5151605,-81.1013604,OH,Washington County,61154,30212,30942
US,OH,39169,40.9751768,-81.6643472,OH,Wayne County,115747,57359,58388
US,OH,39171,41.4964443,-84.3926109,OH,Williams County,37270,18437,18833
US,OH,39173,41.5622763,-83.4249154,OH,Wood County,129418,63646,65772
US,OH,39175,40.8225747,-83.1358849,OH,Wyandot County,22359,11090,11269
US,OK,40001,35.8469341,-94.5269383,OK,Adair County,22161,10997,11164
US,OK,40003,36.7653099,-98.2436996,OK,Alfalfa County,5784,3473,2311
US,OK,40005,34.4445218,-95.9048716,OK,Atoka County,13847,7266,6581
US,OK,40007,36.6471003,-100.2616055,OK,Beaver County,5479,2707,2772
US,OK,40009,35.4111521,-99.379392,OK,Beckham County,23290,12339,10951
US,OK,40011,36.0797379,-98.2549042,OK,Blaine County,9777,5358,4419
US,OK,40013,34.000816,-95.9944063,OK,Bryan County,44529,21641,22888
US,OK,40015,34.9361253,-98.1661483,OK,Caddo County,29510,15389,14121
US,OK,40017,35.4266381,-97.6797312,OK,Canadian County,129571,64268,65303
US,OK,40019,34.1817742,-96.9825827,OK,Carter County,48530,23448,25082
US,OK,40021,36.0058907,-94.8411794,OK,Cherokee County,48267,23872,24395
US,OK,40023,34.0858299,-95.2155858,OK,Choctaw County,15051,7277,7774
US,OK,40025,36.7698216,-102.1940635,OK,Cimarron County,2269,1128,1141
US,OK,40027,35.262689,-97.1627347,OK,Cleveland County,271818,135801,136017
US,OK,40029,34.6563313,-96.1760681,OK,Coal County,5755,2816,2939
US,OK,40031,34.7568381,-98.174719,OK,Comanche County,124583,64689,59894
US,OK,40033,34.2389013,-98.2352553,OK,Cotton County,6062,2988,3074
US,OK,40035,36.6627234,-95.0780207,OK,Craig County,14683,7494,7189
US,OK,40037,36.0276444,-96.0433879,OK,Creek County,70931,35091,35840
US,OK,40039,35.5523578,-98.6694033,OK,Custer County,29248,14597,14651
US,OK,40041,36.2708212,-94.6227689,OK,Delaware County,41433,20505,20928
US,OK,40043,36.0383333,-98.7782142,OK,Dewey County,4862,2461,2401
US,OK,40045,36.0493926,-99.6890488,OK,Ellis County,4123,2002,2121
US,OK,40047,36.4990794,-97.5775495,OK,Garfield County,62481,30941,31540
US,OK,40049,34.7869365,-96.9547482,OK,Garvin County,27570,13672,13898
US,OK,40051,35.3105593,-97.6960881,OK,Grady County,53955,26854,27101
US,OK,40053,36.7087958,-97.5456584,OK,Grant County,4497,2276,2221
US,OK,40055,34.9473097,-99.4010446,OK,Greer County,6081,3546,2535
US,OK,40057,34.745971,-99.8441936,OK,Harmon County,2813,1395,1418
US,OK,40059,36.8048199,-99.5214044,OK,Harper County,3785,1869,1916
US,OK,40061,35.2877536,-94.8839111,OK,Haskell County,12835,6388,6447
US,OK,40063,35.2256081,-96.062185,OK,Hughes County,13727,7368,6359
US,OK,40065,34.7480125,-99.2166289,OK,Jackson County,25864,12867,12997
US,OK,40067,34.192865,-97.6028412,OK,Jefferson County,6280,3166,3114
US,OK,40069,34.3287447,-96.4876624,OK,Johnston County,11027,5422,5605
US,OK,40071,36.8651311,-96.8720426,OK,Kay County,45398,22517,22881
US,OK,40073,35.7912144,-97.7592314,OK,Kingfisher County,15392,7692,7700
US,OK,40075,35.0960732,-98.7521684,OK,Kiowa County,9239,4611,4628
US,OK,40077,34.9260183,-95.0604523,OK,Latimer County,10643,5393,5250
US,OK,40079,35.330168,-94.4483282,OK,Le Flore County,49885,25002,24883
US,OK,40081,35.7539856,-96.6348474,OK,Lincoln County,34640,17194,17446
US,OK,40083,35.7765736,-97.2264933,OK,Logan County,45171,22366,22805
US,OK,40085,33.9912244,-97.0529227,OK,Love County,9768,4830,4938
US,OK,40093,36.3109766,-98.1848676,OK,Major County,7721,3861,3860
US,OK,40095,33.9375856,-96.6445453,OK,Marshall County,16079,8021,8058
US,OK,40097,36.4843937,-95.0131097,OK,Mayes County,40923,20382,20541
US,OK,40087,34.8924346,-97.0992007,OK,McClain County,37222,18563,18659
US,OK,40089,34.000699,-94.536775,OK,McCurtain County,33071,16264,16807
US,OK,40091,35.3563784,-95.3647948,OK,McIntosh County,20161,9950,10211
US,OK,40099,34.4436976,-96.9307932,OK,Murray County,13792,6801,6991
US,OK,40101,35.5104699,-95.1792453,OK,Muskogee County,69939,34194,35745
US,OK,40103,36.2906061,-97.01499,OK,Noble County,11470,5662,5808
US,OK,40105,36.6901789,-95.4975258,OK,Nowata County,10510,5179,5331
US,OK,40107,35.3434383,-96.1217846,OK,Okfuskee County,12212,6542,5670
US,OK,40109,35.5283904,-97.1504017,OK,Oklahoma County,764698,374134,390564
US,OK,40111,35.6165978,-95.7970397,OK,Okmulgee County,39322,19447,19875
US,OK,40113,36.1754962,-96.0059139,OK,Osage County,47923,24031,23892
US,OK,40115,36.8266339,-94.6740605,OK,Ottawa County,32022,15720,16302
US,OK,40117,36.1978578,-96.2911665,OK,Pawnee County,16444,8212,8232
US,OK,40119,35.9928272,-96.6529534,OK,Payne County,79953,40872,39081
US,OK,40121,35.1342202,-95.3684517,OK,Pittsburg County,44643,22693,21950
US,OK,40123,34.8854311,-96.4182133,OK,Pontotoc County,38213,18664,19549
US,OK,40125,35.4397717,-96.7615813,OK,Pottawatomie County,71551,34082,37469
US,OK,40127,34.571256,-95.1186643,OK,Pushmataha County,11149,5462,5687
US,OK,40129,35.745633,-99.461959,OK,Roger Mills County,3732,1823,1909
US,OK,40131,36.5596145,-95.3994794,OK,Rogers County,89970,44799,45171
US,OK,40133,35.1343652,-96.4669491,OK,Seminole County,25403,12396,13007
US,OK,40135,35.3959346,-94.4848687,OK,Sequoyah County,41344,20456,20888
US,OK,40137,34.4097387,-97.606817,OK,Stephens County,44631,21698,22933
US,OK,40139,36.9625595,-101.0617781,OK,Texas County,21499,11359,10140
US,OK,40141,34.3211983,-98.7373926,OK,Tillman County,7611,3902,3709
US,OK,40143,35.9477044,-95.7671487,OK,Tulsa County,629823,307129,322694
US,OK,40145,36.0421458,-95.2869679,OK,Wagoner County,76190,37685,38505
US,OK,40147,36.7317531,-95.8508014,OK,Washington County,51892,25164,26728
US,OK,40149,35.2394111,-98.7391102,OK,Washita County,11626,5797,5829
US,OK,40151,36.7829252,-98.6393356,OK,Woods County,9125,4922,4203
US,OK,40153,36.5472485,-99.1309369,OK,Woodward County,21111,11153,9958
US,OR,41001,44.9622004,-117.0595503,OR,Baker County,16030,8127,7903
US,OR,41003,44.6565439,-123.0930117,OR,Benton County,87455,44079,43376
US,OR,41005,45.2884491,-121.8072815,OR,Clackamas County,394967,194409,200558
US,OR,41007,46.1938454,-123.4841459,OR,Clatsop County,37660,18744,18916
US,OR,41009,45.8688646,-122.7925881,OR,Columbia County,49645,24908,24737
US,OR,41011,43.1741112,-123.8904749,OR,Coos County,62944,30893,32051
US,OR,41013,44.0420698,-120.2163272,OR,Crook County,21334,10471,10863
US,OR,41015,42.116865,-123.9370837,OR,Curry County,22364,10915,11449
US,OR,41017,43.7611386,-120.8356595,OR,Deschutes County,170813,84267,86546
US,OR,41019,43.295011,-122.5222865,OR,Douglas County,107375,53026,54349
US,OR,41021,45.2051697,-120.0249877,OR,Gilliam County,1913,969,944
US,OR,41023,44.7287746,-118.6059598,OR,Grant County,7227,3608,3619
US,OR,41025,43.7226684,-118.5812968,OR,Harney County,7214,3645,3569
US,OR,41027,45.6372768,-121.475544,OR,Hood River County,22842,11495,11347
US,OR,41029,42.1908362,-122.4097091,OR,Jackson County,210916,102814,108102
US,OR,41031,44.6575414,-120.7915137,OR,Jefferson County,22305,11467,10838
US,OR,41033,42.4665944,-123.2585684,OR,Josephine County,84063,41141,42922
US,OR,41035,42.183421,-121.0335453,OR,Klamath County,65946,33005,32941
US,OR,41037,42.4774336,-120.2179865,OR,Lake County,7799,4196,3603
US,OR,41039,44.0539391,-121.9458422,OR,Lane County,360273,177392,182881
US,OR,41041,44.5752538,-123.7514901,OR,Lincoln County,46685,22631,24054
US,OR,41043,44.5425815,-122.2287607,OR,Linn County,119862,59243,60619
US,OR,41045,44.1431072,-116.9376687,OR,Malheur County,30474,16638,13836
US,OR,41047,44.8044154,-122.0106472,OR,Marion County,326527,162353,164174
US,OR,41049,45.219997,-119.2951904,OR,Morrow County,11207,5711,5496
US,OR,41051,45.5352818,-122.0357876,OR,Multnomah County,778193,385176,393017
US,OR,41053,44.9685915,-123.0430676,OR,Polk County,78470,38065,40405
US,OR,41055,45.5880464,-120.6499208,OR,Sherman County,1705,856,849
US,OR,41057,45.5283968,-123.5209814,OR,Tillamook County,25552,12929,12623
US,OR,41059,45.8859053,-118.1642974,OR,Umatilla County,76582,39827,36755
US,OR,41061,45.1498541,-117.7274083,OR,Union County,25758,12706,13052
US,OR,41063,45.5279102,-116.9128676,OR,Wallowa County,6836,3337,3499
US,OR,41065,45.0345876,-120.8673322,OR,Wasco County,25657,12789,12868
US,OR,41067,45.3855836,-122.7477155,OR,Washington County,564088,278000,286088
US,OR,41069,44.6571828,-119.998107,OR,Wheeler County,1369,657,712
US,OR,41071,45.2991058,-122.9141815,OR,Yamhill County,102217,51023,51194
US,PA,42001,39.9368289,-76.9794587,PA,Adams County,101759,50232,51527
US,PA,42003,40.6523895,-79.6995517,PA,Allegheny County,1230360,593029,637331
US,PA,42005,40.7907758,-79.2373519,PA,Armstrong County,67512,33505,34007
US,PA,42007,40.6577356,-80.1636004,PA,Beaver County,169205,82025,87180
US,PA,42009,40.176153,-78.2164794,PA,Bedford County,48852,24409,24443
US,PA,42011,40.4483236,-75.5590031,PA,Berks County,414097,203542,210555
US,PA,42013,40.4502452,-78.1732773,PA,Blair County,125917,61654,64263
US,PA,42015,41.6957753,-76.1572796,PA,Bradford County,61808,30540,31268
US,PA,42017,40.161566,-74.7660596,PA,Bucks County,626220,307068,319152
US,PA,42019,40.7004951,-79.7070482,PA,Butler County,185974,91929,94045
US,PA,42021,40.7032392,-78.4364447,PA,Cambria County,137762,67867,69895
US,PA,42023,41.3748984,-78.1224283,PA,Cameron County,4807,2432,2375
US,PA,42025,40.9893525,-75.5298746,PA,Carbon County,64330,31944,32386
US,PA,42027,40.9649879,-77.3705998,PA,Centre County,159178,83558,75620
US,PA,42029,40.0631925,-75.3795858,PA,Chester County,512028,252007,260021
US,PA,42031,41.0735586,-79.2570173,PA,Clarion County,38939,18983,19956
US,PA,42033,41.0319847,-78.1171295,PA,Clearfield County,81170,42256,38914
US,MO,29097,37.0618814,-94.1144399,MO,Jasper County,117376,57174,60202
US,MO,29099,38.1576384,-90.3214094,MO,Jefferson County,222453,110600,111853
US,MO,29101,38.7948244,-93.5273504,MO,Johnson County,54229,27952,26277
US,MO,29103,40.084374,-91.9998495,MO,Knox County,3997,2025,1972
US,MO,29105,37.5838267,-92.2943515,MO,Laclede County,35505,17608,17897
US,MO,29107,39.2082336,-93.5106675,MO,Lafayette County,32789,16121,16668
US,MO,29109,37.0129415,-93.6322142,MO,Lawrence County,38204,19079,19125
US,MO,29111,40.0447379,-91.508008,MO,Lewis County,10146,5094,5052
US,MO,29113,39.0030198,-90.7324386,MO,Lincoln County,54286,27178,27108
US,MO,29115,39.7784906,-92.9088271,MO,Linn County,12319,5900,6419
US,MO,29117,39.6659081,-93.452823,MO,Livingston County,15057,6773,8284
US,MO,29121,39.6721161,-92.3814038,MO,Macon County,15399,7595,7804
US,MO,29123,37.5594237,-90.1958757,MO,Madison County,12403,6087,6316
US,MO,29125,38.2703669,-91.7241274,MO,Maries County,8987,4453,4534
US,MO,29127,39.6921477,-91.3348858,MO,Marion County,28858,13914,14944
US,MO,29119,36.5551055,-94.1404146,MO,McDonald County,22720,11570,11150
US,MO,29129,40.4303535,-93.4391488,MO,Mercer County,3702,1856,1846
US,MO,29131,38.0903552,-92.2250383,MO,Miller County,25011,12354,12657
US,MO,29133,36.9509014,-89.2267525,MO,Mississippi County,14112,7568,6544
US,MO,29135,38.798627,-92.4761107,MO,Moniteau County,15840,8295,7545
US,MO,29137,39.6504936,-91.7247437,MO,Monroe County,8642,4333,4309
US,MO,29139,38.9208888,-91.3216615,MO,Montgomery County,11820,5885,5935
US,MO,29141,38.2513579,-92.7260825,MO,Morgan County,20182,10136,10046
US,MO,29143,36.6493903,-89.4988897,MO,New Madrid County,18229,8758,9471
US,MO,29145,36.9972915,-94.0890893,MO,Newton County,58741,29291,29450
US,MO,29147,40.3746812,-94.6779053,MO,Nodaway County,23026,11399,11627
US,MO,29149,36.5828899,-91.2263068,MO,Oregon County,10922,5384,5538
US,MO,29151,38.3522406,-91.7288224,MO,Osage County,13704,7153,6551
US,MO,29153,36.5405304,-92.166234,MO,Ozark County,9450,4739,4711
US,MO,29155,36.154829,-89.6327587,MO,Pemiscot County,17599,8318,9281
US,MO,29157,37.6420272,-89.5725143,MO,Perry County,19152,9481,9671
US,MO,29159,38.6871117,-93.0802534,MO,Pettis County,42193,20704,21489
US,MO,29161,38.0140754,-91.5510844,MO,Phelps County,44833,23404,21429
US,MO,29163,39.3001512,-90.8995013,MO,Pike County,18475,10249,8226
US,MO,29165,39.2346285,-94.605357,MO,Platte County,94970,46798,48172
US,MO,29167,37.4631212,-93.2253012,MO,Polk County,31113,15225,15888
US,MO,29169,37.8455913,-92.0600342,MO,Pulaski County,53302,30338,22964
US,MO,29171,40.4226264,-92.7671913,MO,Putnam County,4877,2448,2429
US,MO,29173,39.5849021,-91.2982536,MO,Ralls County,10225,5191,5034
US,MO,29175,39.4543705,-92.3473871,MO,Randolph County,25081,13155,11926
US,MO,29177,39.2690826,-93.808783,MO,Ray County,22921,11340,11581
US,MO,29179,37.1894872,-90.8129743,MO,Reynolds County,6530,3374,3156
US,MO,29181,36.6373376,-90.6204803,MO,Ripley County,13936,6897,7039
US,MO,29195,39.13202,-93.0100949,MO,Saline County,23214,11587,11627
US,MO,29197,40.4932767,-92.4166572,MO,Schuyler County,4396,2155,2241
US,MO,29199,40.4249,-91.9910553,MO,Scotland County,4893,2388,2505
US,MO,29201,36.9953447,-89.4607005,MO,Scott County,38994,18943,20051
US,MO,29203,37.2897504,-91.2964821,MO,Shannon County,8256,4056,4200
US,MO,29205,39.7230338,-91.9765718,MO,Shelby County,6148,3065,3083
US,MO,29183,38.8702055,-90.2195393,MO,St. Charles County,379856,186762,193094
US,MO,29185,38.0329378,-93.5977422,MO,St. Clair County,9444,4750,4694
US,MO,29187,37.6940743,-90.2494635,MO,St. Francois County,66230,35676,30554
US,MO,29189,38.8035235,-90.1579182,MO,St. Louis County,1000560,474388,526172
US,MO,29510,38.6384365,-90.1834805,MO,St. Louis city,316030,152766,163264
US,MO,29186,37.8868712,-89.9959499,MO,Ste. Genevieve County,17937,9037,8900
US,MO,29207,36.8527551,-89.7644454,MO,Stoddard County,29788,14509,15279
US,MO,29209,36.6352449,-93.324776,MO,Stone County,31197,15297,15900
US,MO,29211,40.1467873,-92.9490538,MO,Sullivan County,6416,3255,3161
US,MO,29213,36.5763911,-92.8848734,MO,Taney County,53853,26219,27634
US,MO,29215,37.1794133,-91.6647248,MO,Texas County,25690,13201,12489
US,MO,29217,37.9568297,-94.1269382,MO,Vernon County,20836,10209,10627
US,MO,29219,38.6182688,-90.9987019,MO,Warren County,33290,16777,16513
US,MO,29221,37.8373516,-90.6701457,MO,Washington County,25002,12835,12167
US,MO,29223,37.0021033,-90.2544759,MO,Wayne County,13341,6640,6701
US,MO,29225,37.4110871,-92.750782,MO,Webster County,37075,18883,18192
US,MO,29227,40.4593327,-94.320815,MO,Worth County,2061,984,1077
US,MO,29229,37.1389474,-92.2562202,MO,Wright County,18378,9003,9375
US,MS,28001,31.5063689,-91.208793,MS,Adams County,31747,15901,15846
US,MS,28003,34.9018001,-88.4074542,MS,Alcorn County,37309,18354,18955
US,MS,28005,31.2950384,-90.5829029,MS,Amite County,12692,6302,6390
US,MS,28007,33.0038608,-89.3919462,MS,Attala County,19085,8996,10089
US,MS,28009,34.8608207,-89.117402,MS,Benton County,8378,4159,4219
US,MS,28011,33.7375781,-90.7034383,MS,Bolivar County,33615,15773,17842
US,MS,28013,33.8782714,-89.1770144,MS,Calhoun County,14724,7018,7706
US,MS,28015,33.362804,-89.6778038,MS,Carroll County,10301,5229,5072
US,MS,28017,34.0107709,-88.7395445,MS,Chickasaw County,17357,8437,8920
US,MS,28019,33.4694093,-89.1279884,MS,Choctaw County,8320,4037,4283
US,MS,28021,32.0541286,-90.7873127,MS,Claiborne County,9209,4309,4900
US,MS,28023,31.998535,-88.5295707,MS,Clarke County,16203,7616,8587
US,MS,28025,33.5892784,-88.5341538,MS,Clay County,20147,9343,10804
US,MS,28027,34.3016103,-90.4492656,MS,Coahoma County,24804,11476,13328
US,MS,28029,31.8901051,-90.1765189,MS,Copiah County,28780,13820,14960
US,MS,28031,31.4967896,-89.4468935,MS,Covington County,19503,9299,10204
US,MS,28033,34.8485154,-89.7553248,MS,DeSoto County,170890,82763,88127
US,MS,28035,31.0511073,-89.1621958,MS,Forrest County,76274,36332,39942
US,MS,28037,31.4642654,-90.6959988,MS,Franklin County,7818,3811,4007
US,MS,28039,30.7960107,-88.4598226,MS,George County,23313,11736,11577
US,MS,28041,31.0800496,-88.4860216,MS,Greene County,13941,8190,5751
US,MS,28043,33.7724573,-89.6028267,MS,Grenada County,21518,10281,11237
US,MS,28045,30.3181614,-89.3227206,MS,Hancock County,46028,22404,23624
US,MS,28047,30.3726503,-88.8415132,MS,Harrison County,198570,98115,100455
US,MS,28049,32.3911496,-90.0934296,MS,Hinds County,244596,114238,130358
US,MS,28051,33.047674,-89.85052,MS,Holmes County,18547,8830,9717
US,MS,28053,33.2091464,-90.4335068,MS,Humphreys County,8822,4177,4645
US,MS,28055,32.6839222,-90.9742248,MS,Issaquena County,1352,831,521
US,MS,28057,34.3360515,-88.2199459,MS,Itawamba County,23511,11643,11868
US,MS,28059,30.4996791,-88.4195468,MS,Jackson County,140850,69209,71641
US,MS,28061,32.1182949,-88.9775265,MS,Jasper County,16538,8038,8500
US,MS,28063,31.69526,-90.8249292,MS,Jefferson County,7528,3732,3796
US,MS,28065,31.494038,-89.6436237,MS,Jefferson Davis County,11771,5705,6066
US,MS,28067,31.7198493,-88.959332,MS,Jones County,68313,33207,35106
US,MS,28069,32.7090893,-88.4773431,MS,Kemper County,10128,4931,5197
US,MS,28071,34.2151902,-89.3201268,MS,Lafayette County,52193,25377,26816
US,MS,28073,31.303952,-89.3503292,MS,Lamar County,59623,28686,30937
US,MS,28075,32.5318868,-88.4407084,MS,Lauderdale County,79233,38430,40803
US,MS,28077,31.4634335,-90.0055238,MS,Lawrence County,12603,6176,6427
US,MS,28079,32.6556548,-89.3653725,MS,Leake County,23011,11492,11519
US,MS,28081,34.3100825,-88.5823055,MS,Lee County,85281,40811,44470
US,MS,28083,33.5178845,-90.1184387,MS,Leflore County,30500,14123,16377
US,MS,28085,31.4187858,-90.3090226,MS,Lincoln County,34691,16606,18085
US,MS,28087,33.7000624,-88.2847819,MS,Lowndes County,59785,28561,31224
US,MS,28089,32.819535,-89.784552,MS,Madison County,101791,48681,53110
US,MS,28091,31.3107535,-89.7011153,MS,Marion County,25810,12554,13256
US,MS,28093,34.654086,-89.3782493,MS,Marshall County,36196,17809,18387
US,MS,28095,34.0294955,-88.2892994,MS,Monroe County,36029,17184,18845
US,MS,28097,33.3673577,-89.5414618,MS,Montgomery County,10353,4916,5437
US,MS,28099,32.7958391,-88.9501602,MS,Neshoba County,29474,14131,15343
US,MS,28101,32.5294245,-88.9483902,MS,Newton County,21652,10184,11468
US,MS,28103,33.2277411,-88.3834158,MS,Noxubee County,11098,5256,5842
US,MS,28105,33.4503402,-88.684367,MS,Oktibbeha County,49424,24879,24545
US,MS,28107,34.3839179,-89.7552423,MS,Panola County,34319,16579,17740
US,MS,28109,30.7790342,-89.4248188,MS,Pearl River County,55167,27310,27857
US,MS,28111,31.2315295,-88.8923163,MS,Perry County,12174,5925,6249
US,MS,28113,31.1478805,-90.3118542,MS,Pike County,39939,18925,21014
US,MS,28115,34.266845,-88.8548127,MS,Pontotoc County,30862,15393,15469
US,MS,28117,34.6854171,-88.3703078,MS,Prentiss County,25339,12355,12984
US,MS,28119,34.2294489,-90.2013948,MS,Quitman County,7634,3670,3964
US,MS,28121,32.087125,-89.7968913,MS,Rankin County,147930,71428,76502
US,MS,28123,32.4255688,-89.356411,MS,Scott County,28268,13707,14561
US,MS,28125,32.9587438,-90.7730809,MS,Sharkey County,4662,2148,2514
US,MS,28127,31.9341686,-89.6709382,MS,Simpson County,27279,13309,13970
US,MS,28129,31.8326685,-89.3675718,MS,Smith County,16137,7733,8404
US,MS,28131,30.8762277,-88.9975788,MS,Stone County,17995,9197,8798
US,MS,28133,33.8610023,-90.4964303,MS,Sunflower County,27424,14350,13074
US,MS,28135,33.8688012,-89.9918087,MS,Tallahatchie County,14776,8726,6050
US,MS,28137,34.5971887,-89.7364146,MS,Tate County,28338,13846,14492
US,MS,28139,34.6529655,-88.7590898,MS,Tippah County,22061,10819,11242
US,MS,28141,34.7532331,-88.16007,MS,Tishomingo County,19503,9461,10042
US,MS,28143,34.6306651,-90.2981245,MS,Tunica County,10407,4809,5598
US,MS,28145,34.5437556,-88.7864754,MS,Union County,27989,13672,14317
US,MS,28147,31.0446769,-89.915089,MS,Walthall County,14812,7253,7559
US,MS,28149,32.5054741,-90.6606715,MS,Warren County,47834,22725,25109
US,MS,28151,33.3037693,-90.8244328,MS,Washington County,48824,22920,25904
US,MS,28153,31.4737013,-88.5080087,MS,Wayne County,20517,9871,10646
US,MS,28155,33.5445132,-89.1191147,MS,Webster County,9922,4872,5050
US,MS,28157,31.0914125,-91.0871976,MS,Wilkinson County,9233,4888,4345
US,MS,28159,33.1725166,-88.8641515,MS,Winston County,18519,9046,9473
US,MS,28161,34.1014449,-89.5614505,MS,Yalobusha County,12380,5937,6443
US,MS,28163,32.781283,-90.1136104,MS,Yazoo County,27719,15297,12422
US,MT,30001,45.3574349,-112.5813982,MT,Beaverhead County,9317,4649,4668
US,MT,30003,45.1648714,-106.7936126,MT,Big Horn County,13214,6522,6692
US,MT,30005,48.1398587,-108.5664933,MT,Blaine County,6609,3283,3326
US,MT,30007,46.4265064,-111.3745215,MT,Broadwater County,5692,2928,2764
US,MT,30009,45.1710821,-108.7135853,MT,Carbon County,10340,5171,5169
US,MT,30011,45.41751,-104.5178134,MT,Carter County,1295,625,670
US,MT,30013,47.3986676,-110.8987015,MT,Cascade County,82049,41248,40801
US,MT,30015,48.2311348,-109.8511498,MT,Chouteau County,5837,2898,2939
US,MT,30017,46.087899,-105.5542429,MT,Custer County,11980,5999,5981
US,MT,30019,48.7512492,-105.4987826,MT,Daniels County,1787,878,909
US,MT,30021,47.1097844,-104.6725473,MT,Dawson County,9431,4975,4456
US,MT,30023,46.2099326,-112.7875345,MT,Deer Lodge County,9176,4883,4293
US,MT,30025,46.3394411,-104.2523521,MT,Fallon County,2913,1525,1388
US,MT,30027,47.33043,-108.875161,MT,Fergus County,11429,5750,5679
US,MT,30029,47.9482835,-113.3985315,MT,Flathead County,94696,47281,47415
US,MT,30031,45.7006781,-110.8879363,MT,Gallatin County,97958,50509,47449
US,MT,30033,47.280033,-106.9867061,MT,Garfield County,1061,510,551
US,MT,30035,48.7543083,-112.2752741,MT,Glacier County,13695,6722,6973
US,MT,30037,46.3806243,-109.1745855,MT,Golden Valley County,730,344,386
US,MT,30039,46.6212705,-113.1933606,MT,Granite County,3212,1648,1564
US,MT,30041,48.3891183,-109.6330927,MT,Hill County,16529,8355,8174
US,MT,30043,46.2552534,-111.9259516,MT,Jefferson County,11601,5958,5643
US,MT,30045,47.2400212,-110.2100389,MT,Judith Basin County,1981,1034,947
US,MT,30047,47.7763002,-113.802819,MT,Lake County,29311,14418,14893
US,MT,30049,46.7832523,-111.7507382,MT,Lewis and Clark County,65989,32839,33150
US,MT,30051,48.3281315,-111.0262839,MT,Liberty County,2292,1137,1155
US,MT,30053,48.9346348,-114.8766984,MT,Lincoln County,19268,9639,9629
US,MT,30057,45.453942,-111.5908452,MT,Madison County,7810,4046,3764
US,MT,30055,47.4396399,-105.5815975,MT,McCone County,1678,914,764
US,MT,30059,46.6190592,-110.9204027,MT,Meagher County,1960,937,1023
US,MT,30061,46.909359,-114.6466888,MT,Mineral County,4223,2155,2068
US,MT,30063,47.168725,-113.4096183,MT,Missoula County,113101,56928,56173
US,MT,30065,46.4001149,-108.1733962,MT,Musselshell County,4778,2374,2404
US,MT,30067,45.328458,-110.3383384,MT,Park County,15843,7917,7926
US,MT,30069,47.1419168,-108.2265753,MT,Petroleum County,445,239,206
US,MT,30071,48.717505,-107.7861632,MT,Phillips County,4150,2086,2064
US,MT,30073,48.1763738,-111.7398873,MT,Pondera County,6166,3100,3066
US,MT,30075,45.450012,-105.4069587,MT,Powder River County,1648,811,837
US,MT,30077,46.6195215,-112.529729,MT,Powell County,6928,4314,2614
US,MT,30079,46.8123837,-105.5039937,MT,Prairie County,1414,747,667
US,MT,30081,46.6373918,-113.872129,MT,Ravalli County,41130,20385,20745
US,MT,30083,47.7110802,-104.111805,MT,Richland County,11392,5864,5528
US,MT,30085,48.2581654,-104.2800695,MT,Roosevelt County,11230,5525,5705
US,MT,30087,45.3916192,-106.3558212,MT,Rosebud County,9348,4629,4719
US,MT,30089,47.3760045,-114.4704481,MT,Sanders County,11375,5837,5538
US,MT,30091,48.7380219,-104.2179777,MT,Sheridan County,3645,1866,1779
US,MT,30093,45.9366201,-112.4536457,MT,Silver Bow County,34560,17188,17372
US,MT,30095,45.6512509,-108.996643,MT,Stillwater County,9342,4748,4594
US,MT,30097,45.9859181,-109.9061697,MT,Sweet Grass County,3634,1770,1864
US,MT,30099,47.8280935,-111.6498682,MT,Teton County,6067,2979,3088
US,MT,30101,48.8602408,-111.5874588,MT,Toole County,5114,2919,2195
US,MT,30103,46.2095584,-107.2803688,MT,Treasure County,846,433,413
US,MT,30105,48.3622987,-106.1457388,MT,Valley County,7576,3805,3771
US,MT,30107,46.4112599,-109.6023162,MT,Wheatland County,2109,1094,1015
US,MT,30109,46.9629657,-104.2745184,MT,Wibaux County,1143,552,591
US,MT,30111,46.1541201,-107.9902646,MT,Yellowstone County,155344,76301,79043
US,NC,37001,36.0825127,-79.2661496,NC,Alamance County,156372,74352,82020
US,NC,37003,35.9680621,-81.0430726,NC,Alexander County,37211,18974,18237
US,NC,37005,36.5146451,-80.9608856,NC,Alleghany County,10868,5391,5477
US,NC,37007,34.9232378,-79.9300517,NC,Anson County,25883,13575,12308
US,NC,37009,36.3988389,-81.3489861,NC,Ashe County,26992,13302,13690
US,NC,37011,36.0343785,-81.8271643,NC,Avery County,17633,9639,7994
US,NC,37013,35.5528832,-76.5540088,NC,Beaufort County,47513,22714,24799
US,NC,37015,35.9808619,-76.6689579,NC,Bertie County,20324,10389,9935
US,NC,37017,34.4741692,-78.2988448,NC,Bladen County,34454,16361,18093
US,NC,37019,33.9225601,-77.954369,NC,Brunswick County,119167,57790,61377
US,NC,37021,35.5233129,-82.263518,NC,Buncombe County,250112,120043,130069
US,NC,37023,35.7495581,-81.4027319,NC,Burke County,89082,44089,44993
US,NC,37025,35.4174519,-80.3821149,NC,Cabarrus County,192296,93508,98788
US,NC,37027,35.9637445,-81.3669873,NC,Caldwell County,81623,40166,41457
US,NC,37029,36.1293379,-75.963395,NC,Camden County,10228,5133,5095
US,NC,37031,35.0939085,-76.259355,NC,Carteret County,68537,33660,34877
US,NC,37033,36.3731079,-79.1920382,NC,Caswell County,23094,11640,11454
US,NC,37035,35.5868802,-80.9595726,NC,Catawba County,155461,76086,79375
US,NC,37037,35.8465223,-78.9629363,NC,Chatham County,68778,33303,35475
US,NC,37039,35.1859207,-83.7638176,NC,Cherokee County,27226,13308,13918
US,NC,37041,36.0504378,-76.5032702,NC,Chowan County,14556,6925,7631
US,NC,37043,35.0158701,-83.6360317,NC,Clay County,10730,5059,5671
US,NC,37045,35.2583791,-81.3301105,NC,Cleveland County,97113,46731,50382
US,NC,37047,34.3485721,-78.2229069,NC,Columbus County,57015,28027,28988
US,NC,37049,34.9254903,-76.7044279,NC,Craven County,104190,52791,51399
US,NC,37051,34.8745685,-78.58825,NC,Cumberland County,325841,159259,166582
US,NC,37053,36.3931856,-75.7922637,NC,Currituck County,24864,12299,12565
US,NC,37055,35.554722,-75.4467584,NC,Dare County,35187,17290,17897
US,NC,37057,35.9843426,-80.0492814,NC,Davidson County,164058,80049,84009
US,NC,37059,35.9288347,-80.3878929,NC,Davie County,41568,20263,21305
US,NC,37061,34.8884182,-77.691255,NC,Duplin County,59121,28969,30152
US,NC,37063,35.9932527,-78.7421247,NC,Durham County,294618,140813,153805
US,NC,37065,35.8883371,-77.4187534,NC,Edgecombe County,54669,25396,29273
US,NC,37067,36.12505,-80.0484414,NC,Forsyth County,364691,173059,191632
US,NC,37069,36.1740946,-78.0820047,NC,Franklin County,62989,31235,31754
US,NC,37071,35.3634111,-80.9481991,NC,Gaston County,211753,102235,109518
US,NC,37073,36.4820417,-76.5310451,NC,Gates County,11615,5762,5853
US,NC,37075,35.4083522,-83.6499869,NC,Graham County,8651,4326,4325
US,NC,37077,36.4627112,-78.5357934,NC,Granville County,58341,29722,28619
US,NC,37079,35.4661732,-77.5282802,NC,Greene County,21241,11452,9789
US,NC,37081,36.1426616,-79.5516971,NC,Guilford County,511815,242827,268988
US,NC,37083,36.1674083,-77.3429742,NC,Halifax County,52849,25436,27413
US,NC,37085,35.3246992,-78.5524608,NC,Harnett County,126620,62640,63980
US,NC,37087,35.4254924,-82.7978914,NC,Haywood County,59577,28798,30779
US,NC,37089,35.3610177,-82.3147987,NC,Henderson County,110905,53523,57382
US,NC,37091,36.291547,-76.8032583,NC,Hertford County,24285,11991,12294
US,NC,37093,34.9637775,-79.0577036,NC,Hoke County,51853,25654,26199
US,NC,37095,35.1070011,-75.8812071,NC,Hyde County,5629,2977,2652
US,NC,37097,35.999768,-80.7276418,NC,Iredell County,167493,82362,85131
US,NC,37099,35.234138,-83.0009848,NC,Jackson County,41227,20392,20835
US,NC,37101,35.5818763,-78.1174224,NC,Johnston County,182155,89432,92723
US,NC,37103,35.0059741,-77.1598512,NC,Jones County,10074,4878,5196
US,NC,37105,35.4681858,-79.0377473,NC,Lee County,59540,29003,30537
US,NC,37107,35.3430015,-77.427008,NC,Lenoir County,58343,27863,30480
US,NC,37109,35.481978,-80.9598295,NC,Lincoln County,79783,39547,40236
US,NC,37113,35.0925732,-83.2188804,NC,Macon County,33991,16429,17562
US,NC,37115,35.8421362,-82.4647563,NC,Madison County,21130,10447,10683
US,NC,37117,35.8192252,-76.8370074,NC,Martin County,23510,10951,12559
US,NC,37111,35.636155,-81.8776159,NC,McDowell County,45013,22731,22282
US,NC,37119,35.2084182,-80.5910474,NC,Mecklenburg County,1011774,486037,525737
US,NC,37121,35.9163718,-82.0151844,NC,Mitchell County,15263,7465,7798
US,NC,37123,35.2068682,-79.678356,NC,Montgomery County,27475,13437,14038
US,NC,37125,35.192206,-79.1147513,NC,Moore County,93070,44833,48237
US,NC,37127,36.1146281,-77.7482,NC,Nash County,94385,45309,49076
US,NC,37129,34.2802043,-77.7437971,NC,New Hanover County,216430,104029,112401
US,NC,37131,36.5088958,-77.1731959,NC,Northampton County,20628,10017,10611
US,NC,37133,34.6861794,-77.1335588,NC,Onslow County,185755,100854,84901
US,NC,37135,36.0755969,-78.9951513,NC,Orange County,139807,66666,73141
US,NC,37137,35.2160465,-76.4369069,NC,Pamlico County,12892,6599,6293
US,NC,37139,36.105864,-76.0961849,NC,Pasquotank County,39909,19548,20361
US,NC,37141,34.4237338,-77.5475309,NC,Pender County,56358,28042,28316
US,NC,37143,36.0823489,-76.2033856,NC,Perquimans County,13470,6439,7031
US,NC,37145,36.2879188,-78.8354291,NC,Person County,39196,19019,20177
US,NC,37147,35.5492211,-77.1826808,NC,Pitt County,175150,82515,92635
US,NC,37149,35.2242681,-82.0172783,NC,Polk County,20324,9732,10592
US,NC,37151,35.8361556,-79.5489405,NC,Randolph County,142588,70281,72307
US,NC,37153,35.0404235,-79.4913655,NC,Richmond County,45710,22113,23597
US,NC,37155,34.686444,-78.8673414,NC,Robeson County,134576,64911,69665
US,NC,37157,36.4702528,-79.5465986,NC,Rockingham County,91898,44313,47585
US,NC,37159,35.5353311,-80.2540429,NC,Rowan County,138694,68575,70119
US,NC,37161,35.3803709,-81.7306024,NC,Rutherford County,66701,32392,34309
US,NC,37163,34.9536388,-78.172482,NC,Sampson County,63713,31190,32523
US,NC,37165,34.9143273,-79.3768081,NC,Scotland County,35711,17684,18027
US,NC,37167,35.1886148,-80.0804089,NC,Stanly County,60610,30158,30452
US,NC,37169,36.3452914,-80.0740983,NC,Stokes County,46453,22749,23704
US,NC,37171,36.491708,-80.4631491,NC,Surry County,72767,35422,37345
US,NC,37173,35.545109,-83.2545592,NC,Swain County,14234,6940,7294
US,NC,37175,35.2421922,-82.634261,NC,Transylvania County,33062,15910,17152
US,NC,37177,36.024073,-76.0942078,NC,Tyrrell County,4128,2325,1803
US,NC,37179,35.1141457,-80.316366,NC,Union County,217614,107221,110393
US,NC,37181,36.3377771,-78.3104775,NC,Vance County,44508,20766,23742
US,NC,37183,35.8138619,-78.279789,NC,Wake County,998576,485068,513508
US,NC,37185,36.5259176,-77.947859,NC,Warren County,20324,10196,10128
US,NC,37187,35.888296,-76.4017342,NC,Washington County,12503,5815,6688
US,NC,37189,36.1937951,-81.518708,NC,Watauga County,52745,26315,26430
US,NC,37191,35.3872255,-77.8323434,NC,Wayne County,124447,61002,63445
US,NC,37193,36.2694761,-80.8845435,NC,Wilkes County,68888,33902,34986
US,NC,37195,35.6814282,-77.7330747,NC,Wilson County,81617,38626,42991
US,NC,37197,36.1686666,-80.4851725,NC,Yadkin County,37819,18602,19217
US,NC,37199,35.9125828,-82.1702621,NC,Yancey County,17599,8609,8990
US,ND,38001,46.1151413,-102.466917,ND,Adams County,2348,1187,1161
US,ND,38003,46.7736623,-97.8491501,ND,Barnes County,11033,5427,5606
US,ND,38005,47.9127687,-98.7623301,ND,Benson County,6802,3492,3310
US,ND,38007,47.007044,-103.3640163,ND,Billings County,936,533,403
US,ND,38009,48.713149,-100.307394,ND,Bottineau County,6650,3488,3162
US,ND,38011,46.1288896,-103.1468199,ND,Bowman County,3238,1571,1667
US,ND,38013,48.8007253,-102.3523381,ND,Burke County,2239,1208,1031
US,ND,38015,46.8444388,-100.2989567,ND,Burleigh County,90560,45126,45434
US,ND,38017,46.9261859,-96.7674508,ND,Cass County,166852,84300,82552
US,ND,38019,48.655442,-98.1713372,ND,Cavalier County,3867,1957,1910
US,ND,38021,46.0155839,-98.0704754,ND,Dickey County,5160,2590,2570
US,ND,38023,48.9380576,-103.2132017,ND,Divide County,2369,1190,1179
US,ND,38025,47.2108452,-102.3289507,ND,Dunn County,4284,2266,2018
US,ND,38027,47.7151907,-98.8481327,ND,Eddy County,2370,1144,1226
US,ND,38029,46.1231747,-100.0041814,ND,Emmons County,3426,1713,1713
US,ND,38031,47.4714315,-98.8728755,ND,Foster County,3345,1663,1682
US,ND,38033,46.7408341,-103.8482189,ND,Golden Valley County,1895,931,964
US,ND,38035,47.751802,-97.0129699,ND,Grand Forks County,69793,36093,33700
US,ND,38037,46.2324251,-101.5809258,ND,Grant County,2369,1176,1193
US,ND,38039,47.4496099,-98.0920917,ND,Griggs County,2311,1165,1146
US,ND,38041,46.4064976,-102.2257352,ND,Hettinger County,2639,1252,1387
US,ND,38043,46.7648194,-99.7348154,ND,Kidder County,2419,1284,1135
US,ND,38045,46.4495529,-98.1911064,ND,LaMoure County,4111,2112,1999
US,ND,38047,46.4673662,-99.3177278,ND,Logan County,1939,986,953
US,ND,38049,48.0128602,-100.4257954,ND,McHenry County,5912,3079,2833
US,ND,38051,46.0373562,-99.376878,ND,McIntosh County,2737,1367,1370
US,ND,38053,47.8457348,-102.7054702,ND,McKenzie County,10718,5610,5108
US,ND,38055,47.6886146,-100.7890709,ND,McLean County,9576,4917,4659
US,ND,38057,47.3919595,-101.5592528,ND,Mercer County,8671,4477,4194
US,ND,38059,46.821146,-100.8497101,ND,Morton County,29633,15295,14338
US,ND,38061,47.9269275,-102.0762006,ND,Mountrail County,9675,5241,4434
US,ND,38063,47.8389213,-98.0216126,ND,Nelson County,3032,1525,1507
US,ND,38065,47.1249687,-101.1060136,ND,Oliver County,1768,931,837
US,ND,38067,48.5901158,-97.1635221,ND,Pembina County,7136,3689,3447
US,ND,38069,48.4588219,-99.8809182,ND,Pierce County,4373,2216,2157
US,ND,38071,48.4063003,-98.4921015,ND,Ramsey County,11578,5891,5687
US,ND,38073,46.4683149,-97.4108401,ND,Ransom County,5457,2780,2677
US,ND,38075,48.524316,-101.5059267,ND,Renville County,2573,1282,1291
US,ND,38077,46.251385,-96.6044877,ND,Richland County,16329,8454,7875
US,ND,38079,48.90461,-99.5872508,ND,Rolette County,14607,7215,7392
US,ND,38081,46.1015487,-97.3740714,ND,Sargent County,3889,2053,1836
US,ND,38083,47.5813594,-100.3309858,ND,Sheridan County,1395,707,688
US,ND,38085,46.0828939,-100.6270392,ND,Sioux County,4431,2223,2208
US,ND,38087,46.4458338,-103.462462,ND,Slope County,665,361,304
US,ND,38089,46.9312758,-102.2101385,ND,Stark County,29837,15538,14299
US,ND,38091,47.4052964,-97.6973494,ND,Steele County,1969,1028,941
US,ND,38093,46.7650667,-98.5499866,ND,Stutsman County,21108,10801,10307
US,ND,38095,48.4646857,-99.0901343,ND,Towner County,2292,1142,1150
US,ND,38097,47.5776237,-96.9949687,ND,Traill County,8075,4071,4004
US,ND,38099,48.4195323,-97.284747,ND,Walsh County,10995,5638,5357
US,ND,38101,48.131428,-101.0689072,ND,Ward County,68954,36151,32803
US,ND,38103,47.752924,-99.6512376,ND,Wells County,4179,2083,2096
US,ND,38105,48.3797169,-103.0051043,ND,Williams County,31643,17360,14283
US,NE,31001,40.4605732,-98.3328769,NE,Adams County,31536,16007,15529
US,NE,31003,41.9967884,-97.9402875,NE,Antelope County,6421,3217,3204
US,NE,31005,41.5719443,-101.6958984,NE,Arthur County,437,210,227
US,NE,31007,41.5397495,-103.7262626,NE,Banner County,793,368,425
US,NE,31009,41.9252304,-99.990771,NE,Blaine County,580,308,272
US,NE,31011,41.5587768,-97.876388,NE,Boone County,5353,2693,2660
US,NE,31013,42.140126,-102.766178,NE,Box Butte County,11279,5741,5538
US,NE,31015,42.889868,-98.5595244,NE,Boyd County,2006,1024,982
US,NE,31017,42.3595618,-99.9239198,NE,Brown County,3022,1439,1583
US,NE,31019,40.7788725,-98.7408153,NE,Buffalo County,48402,24188,24214
US,NE,31021,41.734349,-96.2174529,NE,Burt County,6594,3241,3353
US,NE,31023,41.3283394,-96.9943729,NE,Butler County,8205,4126,4079
US,NE,31025,40.9624032,-95.8683354,NE,Cass County,25463,12760,12703
US,NE,31027,42.4376647,-97.0907392,NE,Cedar County,8657,4396,4261
US,NE,31029,40.4095609,-101.5966924,NE,Chase County,4061,1983,2078
US,NE,31031,42.8759429,-100.5062646,NE,Cherry County,5781,2844,2937
US,NE,31033,41.2812881,-102.7495937,NE,Cheyenne County,10090,4956,5134
US,NE,31035,40.6323777,-97.870336,NE,Clay County,6313,3224,3089
US,NE,31037,41.6972019,-96.9919453,NE,Colfax County,10499,5449,5050
US,NE,31039,41.8219462,-96.639495,NE,Cuming County,9055,4578,4477
US,NE,31041,41.4515857,-99.3405184,NE,Custer County,10784,5331,5453
US,NE,31043,42.4586378,-96.3904321,NE,Dakota County,20697,10072,10625
US,NE,31045,42.826977,-102.9913108,NE,Dawes County,9082,4476,4606
US,NE,31047,40.7726892,-99.49675,NE,Dawson County,23924,12122,11802
US,NE,31049,41.1125424,-102.2366236,NE,Deuel County,1932,944,988
US,NE,31051,42.5919176,-96.7373205,NE,Dixon County,5809,2921,2888
US,NE,31053,41.4181785,-96.3934175,NE,Dodge County,36679,17969,18710
US,NE,31055,41.3024254,-95.8927626,NE,Douglas County,543253,267547,275706
US,NE,31057,40.1686279,-101.4382824,NE,Dundy County,1823,912,911
US,NE,31059,40.4895417,-97.4745994,NE,Fillmore County,5676,2834,2842
US,NE,31061,40.2710382,-98.8464731,NE,Franklin County,3076,1541,1535
US,NE,31063,40.547676,-100.20494,NE,Frontier County,2599,1303,1296
US,NE,31065,40.2999371,-99.7517409,NE,Furnas County,4850,2363,2487
US,NE,31067,40.2848596,-96.5645969,NE,Gage County,21778,10807,10971
US,NE,31069,41.3976242,-102.2814305,NE,Garden County,1930,927,1003
US,NE,31071,41.9068675,-98.951231,NE,Garfield County,1968,982,986
US,NE,31073,40.4877866,-99.8103914,NE,Gosper County,1977,944,1033
US,NE,31075,41.9139574,-101.7559645,NE,Grant County,647,341,306
US,NE,31077,41.59893,-98.4526231,NE,Greeley County,2447,1220,1227
US,NE,31079,40.9208387,-98.2864406,NE,Hall County,61105,30720,30385
US,NE,31081,41.0069059,-97.8982182,NE,Hamilton County,9118,4560,4558
US,NE,31083,40.1189507,-99.2712873,NE,Harlan County,3465,1824,1641
US,NE,31085,40.5372337,-101.0479627,NE,Hayes County,1013,558,455
US,NE,31087,40.2398985,-100.8119829,NE,Hitchcock County,2866,1434,1432
US,NE,31089,42.3566016,-98.4404172,NE,Holt County,10360,5145,5215
US,NE,31091,41.9187,-101.1168102,NE,Hooker County,669,316,353
US,NE,31093,41.3195282,-98.3764488,NE,Howard County,6365,3232,3133
US,NE,31095,40.238574,-97.0192777,NE,Jefferson County,7354,3580,3774
US,NE,31097,40.3340094,-96.1474045,NE,Johnson County,5167,3085,2082
US,NE,31099,40.5268098,-98.8810013,NE,Kearney County,6548,3228,3320
US,NE,31101,41.1461607,-101.4379937,NE,Keith County,8103,4090,4013
US,NE,31103,42.8754803,-99.7183514,NE,Keya Paha County,736,387,349
US,NE,31105,41.2600577,-103.6356593,NE,Kimball County,3713,1869,1844
US,NE,31107,42.7239897,-97.599655,NE,Knox County,8551,4175,4376
US,NE,31109,40.6853693,-96.5066796,NE,Lancaster County,301707,151180,150527
US,NE,31111,41.0110558,-100.3084597,NE,Lincoln County,35777,17588,18189
US,NE,31113,41.5421555,-100.4436647,NE,Logan County,830,417,413
US,NE,31115,41.8976648,-99.5097764,NE,Loup County,542,258,284
US,NE,31119,42.028904,-97.3810963,NE,Madison County,35125,17405,17720
US,NE,31117,41.6484137,-101.1208507,NE,McPherson County,425,219,206
US,NE,31121,41.3009834,-97.7432608,NE,Merrick County,7793,3854,3939
US,NE,31123,41.7296941,-102.8660453,NE,Morrill County,4843,2428,2415
US,NE,31125,41.4498346,-97.7286924,NE,Nance County,3607,1781,1826
US,NE,31127,40.3333411,-95.6883469,NE,Nemaha County,7101,3491,3610
US,NE,31129,40.1113264,-97.9441778,NE,Nuckolls County,4352,2150,2202
US,NE,31131,40.654993,-95.8240171,NE,Otoe County,15890,7809,8081
US,NE,31133,40.16335,-96.0948881,NE,Pawnee County,2695,1339,1356
US,NE,31135,40.8371701,-101.4035841,NE,Perkins County,2911,1468,1443
US,NE,31137,40.5616732,-99.3083409,NE,Phelps County,9236,4632,4604
US,NE,31139,42.3159519,-97.4572514,NE,Pierce County,7179,3614,3565
US,NE,31141,41.4185253,-97.2926324,NE,Platte County,32703,16488,16215
US,NE,31143,41.126772,-97.4743502,NE,Polk County,5242,2584,2658
US,NE,31145,40.2787132,-100.3150365,NE,Red Willow County,10884,5533,5351
US,NE,31147,40.1306743,-95.5300269,NE,Richardson County,8149,4026,4123
US,NE,31149,42.394749,-99.4208512,NE,Rock County,1407,688,719
US,NE,31151,40.6176395,-96.9229825,NE,Saline County,14356,7231,7125
US,NE,31153,41.1701696,-95.8741336,NE,Sarpy County,172460,86211,86249
US,NE,31155,41.0415782,-96.3528859,NE,Saunders County,20946,10530,10416
US,NE,31157,41.8244592,-103.4542182,NE,Scotts Bluff County,36599,17667,18932
US,NE,31159,40.9209527,-96.9772192,NE,Seward County,17113,8696,8417
US,NE,31161,42.8180008,-102.1949124,NE,Sheridan County,5259,2586,2673
US,NE,31163,41.2705133,-98.8623705,NE,Sherman County,3090,1522,1568
US,NE,31165,42.1104956,-103.7684585,NE,Sioux County,1274,636,638
US,NE,31167,41.9529631,-97.0936579,NE,Stanton County,6022,3022,3000
US,NE,31169,40.1036168,-97.5104902,NE,Thayer County,5163,2558,2605
US,NE,31171,41.8486202,-100.5069105,NE,Thomas County,675,357,318
US,NE,31173,42.1012056,-96.3592531,NE,Thurston County,6989,3457,3532
US,NE,31175,41.5687373,-98.8652349,NE,Valley County,4240,2128,2112
US,NE,31177,41.4548939,-95.992737,NE,Washington County,20338,10064,10274
US,NE,31179,42.1704597,-96.9694628,NE,Wayne County,9414,4813,4601
US,NE,31181,40.3280188,-98.4533999,NE,Webster County,3665,1784,1881
US,NE,31183,41.922578,-98.520851,NE,Wheeler County,805,411,394
US,NE,31185,40.9516122,-97.4720201,NE,York County,13842,6799,7043
US,NH,33001,43.4981446,-71.2054163,NH,Belknap County,60392,29571,30821
US,NH,33003,43.5964381,-70.9883663,NH,Carroll County,47416,23653,23763
US,NH,33005,42.7293624,-71.9677672,NH,Cheshire County,76320,37271,39049
US,NH,33007,44.500217,-71.145757,NH,Coos County,32219,17090,15129
US,NH,33009,44.1008199,-71.4940493,NH,Grafton County,89164,43911,45253
US,NH,33011,42.7365045,-71.280189,NH,Hillsborough County,404948,200979,203969
US,NH,33013,43.2730695,-71.2975359,NH,Merrimack County,147715,72732,74983
US,NH,33015,43.0621628,-70.7168771,NH,Rockingham County,300365,148646,151719
US,NH,33017,43.228766,-70.8310603,NH,Strafford County,125913,61524,64389
US,NH,33019,43.491916,-72.0381143,NH,Sullivan County,43051,21130,21921
US,NJ,34001,39.3786158,-74.3585021,NJ,Atlantic County,274026,132741,141285
US,NJ,34003,40.9687824,-73.9168962,NJ,Bergen County,930310,450329,479981
US,NJ,34005,39.6721394,-74.5171969,NJ,Burlington County,450236,221808,228428
US,NJ,34007,39.7254413,-74.789962,NJ,Camden County,511145,247229,263916
US,NJ,34009,39.292022,-74.5527833,NJ,Cape May County,95404,46594,48810
US,NJ,34011,39.3422042,-74.9219095,NJ,Cumberland County,155744,79905,75839
US,NJ,34013,40.7290979,-74.1267015,NJ,Essex County,792586,380718,411868
US,NJ,34015,39.6371399,-74.9229877,NJ,Gloucester County,291286,141585,149701
US,NJ,34017,40.7959176,-73.9931191,NJ,Hudson County,668526,332210,336316
US,NJ,34019,40.6294348,-74.735303,NJ,Hunterdon County,125708,62725,62983
US,NJ,34021,40.2725566,-74.4844255,NJ,Mercer County,371101,181642,189459
US,NJ,34023,40.5822392,-74.2200922,NJ,Middlesex County,831852,409221,422631
US,NJ,34025,40.3403356,-73.957901,NJ,Monmouth County,627532,305359,322173
US,NJ,34027,40.9074854,-74.2803834,NJ,Morris County,498215,244099,254116
US,NJ,34029,40.096188,-74.0381028,NJ,Ocean County,586166,282068,304098
US,NJ,34031,40.8594747,-74.1087929,NJ,Passaic County,507204,246848,260356
US,NJ,34033,39.5478787,-75.0949731,NJ,Salem County,64504,31407,33097
US,NJ,34035,40.6354998,-74.4201649,NJ,Somerset County,331686,161900,169786
US,NJ,34037,41.2017938,-74.4278016,NJ,Sussex County,144694,71759,72935
US,NJ,34039,40.6545325,-74.1675968,NJ,Union County,550436,268169,282267
US,NJ,34041,40.8626014,-74.818336,NJ,Warren County,107095,52215,54880
US,NM,35001,34.9482702,-106.2411392,NM,Bernalillo County,674777,330751,344026
US,NM,35003,34.0512434,-108.2713684,NM,Catron County,3547,1860,1687
US,NM,35005,33.585007,-104.0287933,NM,Chaves County,65610,32534,33076
US,NM,35006,35.0723325,-107.2299684,NM,Cibola County,27373,13884,13489
US,NM,35007,36.7447854,-104.2442505,NM,Colfax County,12716,6431,6285
US,NM,35009,34.3935859,-103.0535071,NM,Curry County,50544,26213,24331
US,NM,35011,34.4866945,-104.2175055,NM,De Baca County,1977,915,1062
US,NM,35013,32.0555686,-106.4013161,NM,Dona Ana County,213825,105129,108696
US,NM,35015,32.1675234,-103.9465851,NM,Eddy County,56369,28463,27906
US,NM,35017,32.9208213,-107.893418,NM,Grant County,28879,14257,14622
US,NM,35019,34.934709,-104.5017512,NM,Guadalupe County,4469,2602,1867
US,NM,35021,35.8595804,-103.851495,NM,Harding County,565,290,275
US,NM,35023,32.336235,-108.7011061,NM,Hidalgo County,4531,2227,2304
US,NM,35025,32.7189064,-103.0836105,NM,Lea County,68930,35420,33510
US,NM,35027,33.3066984,-105.1118591,NM,Lincoln County,19726,9736,9990
US,NM,35028,35.8159161,-106.1869329,NM,Los Alamos County,17895,9187,8708
US,NM,35029,32.0048084,-107.4303867,NM,Luna County,24627,12225,12402
US,NM,35031,35.9042574,-107.5138632,NM,McKinley County,74346,35924,38422
US,NM,35033,36.0042045,-104.7880622,NM,Mora County,4598,2374,2224
US,NM,35035,32.9284024,-105.4897767,NM,Otero County,65333,33491,31842
US,NM,35037,35.2931943,-103.2736821,NM,Quay County,8555,4260,4295
US,NM,35039,36.0312827,-105.7129484,NM,Rio Arriba County,39924,19608,20316
US,NM,35041,34.2013756,-103.1352253,NM,Roosevelt County,19618,9843,9775
US,NM,35045,36.8812222,-107.6958137,NM,San Juan County,122537,60845,61692
US,NM,35047,35.5272361,-104.4491688,NM,San Miguel County,28350,14268,14082
US,NM,35043,35.8507535,-106.2574794,NM,Sandoval County,138117,67822,70295
US,NM,35049,35.6345516,-105.7610598,NM,Santa Fe County,147320,71604,75716
US,NM,35051,33.170858,-106.8901164,NM,Sierra County,11442,5663,5779
US,NM,35053,33.9264143,-106.5310317,NM,Socorro County,17324,8856,8468
US,NM,35055,36.8588063,-105.3941822,NM,Taos County,32961,16084,16877
US,NM,35057,34.5239727,-105.6396373,NM,Torrance County,15599,8098,7501
US,NM,35059,36.467103,-103.1514393,NM,Union County,4292,2398,1894
US,NM,35061,34.8049263,-106.5078818,NM,Valencia County,75993,38178,37815
US,NV,32510,39.1412276,-119.6444041,NV,Carson City,54412,27785,26627
US,NV,32001,39.5843947,-118.1114752,NV,Churchill County,24148,12285,11863
US,NV,32003,36.8020803,-114.055818,NV,Clark County,2070153,1035722,1034431
US,NV,32005,38.6698137,-119.3856296,NV,Douglas County,47426,23909,23517
US,NV,32007,40.7357141,-114.0782133,NV,Elko County,52029,27082,24947
US,NV,32009,37.556989,-117.3833555,NV,Esmeralda County,1069,500,569
US,NV,32011,39.4232621,-116.1656073,NV,Eureka County,1730,845,885
US,NV,32013,41.0111487,-117.2949438,NV,Humboldt County,17091,8899,8192
US,NV,32015,40.8129672,-116.7812056,NV,Lander County,5907,3255,2652
US,NV,32017,37.7441575,-114.2305601,NV,Lincoln County,5155,2821,2334
US,NV,32019,39.0978274,-119.0224302,NV,Lyon County,51897,26220,25677
US,NV,32021,38.516647,-118.4162794,NV,Mineral County,4519,2276,2243
US,NV,32023,36.0540688,-115.8970514,NV,Nye County,43198,21547,21651
US,NV,32027,40.421778,-117.7670524,NV,Pershing County,6690,4364,2326
US,NV,32029,39.5188996,-119.5017032,NV,Storey County,3941,1887,2054
US,NV,32031,39.7052694,-119.5151334,NV,Washoe County,439914,221166,218748
US,NV,32033,39.4053564,-114.7748793,NV,White Pine County,9893,5759,4134
US,NY,36001,42.7696247,-73.6855503,NY,Albany County,307891,148964,158927
US,NY,36003,42.1995052,-77.7648546,NY,Allegany County,47700,24124,23576
US,NY,36005,40.8538116,-73.7715089,NY,Bronx County,1436785,676440,760345
US,NY,36007,42.0755874,-75.4553103,NY,Broome County,197381,96991,100390
US,NY,36009,42.2310456,-78.314009,NY,Cattaraugus County,78506,38795,39711
US,NY,36011,42.652705,-76.3210527,NY,Cayuga County,78783,40388,38395
US,NY,36013,42.4828557,-79.0955118,NY,Chautauqua County,131748,65093,66655
US,NY,36015,42.2341913,-76.5791106,NY,Chemung County,87742,43482,44260
US,NY,36017,42.620129,-75.3416061,NY,Chenango County,49286,24601,24685
US,NY,36019,44.9859731,-73.3707754,NY,Clinton County,81505,41893,39612
US,NY,36021,42.4111325,-73.4363251,NY,Columbia County,61860,31058,30802
US,NY,36023,42.5306697,-75.9137694,NY,Cortland County,48713,23778,24935
US,NY,36025,42.3087465,-74.5289444,NY,Delaware County,46480,23356,23124
US,NY,36027,41.9517339,-73.5101475,NY,Dutchess County,295905,147197,148708
US,NY,36029,43.0750176,-78.4776988,NY,Erie County,922129,446259,475870
US,NY,36031,44.4276569,-73.3344689,NY,Essex County,38598,20158,18440
US,NY,36033,44.8973492,-74.0681896,NY,Franklin County,51007,27788,23219
US,NY,36035,43.200083,-74.1425037,NY,Fulton County,54297,27062,27235
US,NY,36037,42.9676171,-77.939119,NY,Genesee County,59053,29325,29728
US,NY,36039,42.436161,-73.7950467,NY,Greene County,48069,24956,23113
US,NY,36041,43.7330694,-74.2500522,NY,Hamilton County,4697,2382,2315
US,NY,36043,43.1314934,-74.7748639,NY,Herkimer County,63558,31375,32183
US,NY,36045,44.0402059,-75.5461409,NY,Jefferson County,117966,61754,56212
US,NY,36047,40.6664005,-73.8585588,NY,Kings County,2606852,1234959,1371893
US,TX,48203,32.5036285,-94.0554582,TX,Harrison County,66431,32573,33858
US,TX,48205,35.7167664,-102.3805857,TX,Hartley County,5966,3596,2370
US,TX,48207,33.120371,-99.6317724,TX,Haskell County,5812,3236,2576
US,TX,48209,30.0241697,-97.7473311,TX,Hays County,185686,92221,93465
US,TX,48211,35.8159564,-100.2792102,TX,Hemphill County,4151,1985,2166
US,TX,48213,32.3228236,-95.4845036,TX,Henderson County,79213,38586,40627
US,TX,48215,26.2047339,-97.8825424,TX,Hidalgo County,828334,404079,424255
US,TX,48217,31.841747,-96.8037638,TX,Hill County,34901,17216,17685
US,TX,48219,33.6334228,-102.1706769,TX,Hockley County,23377,11525,11852
US,TX,48221,32.3663108,-97.6426745,TX,Hood County,54217,26724,27493
US,TX,48223,33.1515579,-95.3256014,TX,Hopkins County,35844,17592,18252
US,TX,48225,31.3982961,-95.0987768,TX,Houston County,22802,12225,10577
US,TX,48227,32.3500086,-101.2469093,TX,Howard County,36423,20654,15769
US,TX,48229,31.8359049,-105.0529571,TX,Hudspeth County,3481,1745,1736
US,TX,48231,33.2485932,-95.8719606,TX,Hunt County,89068,43952,45116
US,TX,48233,35.7271773,-101.2485912,TX,Hutchinson County,21782,10853,10929
US,TX,48235,31.2601562,-100.8225712,TX,Irion County,1631,838,793
US,TX,48237,33.087966,-98.0606191,TX,Jack County,8866,5037,3829
US,TX,48239,28.8247197,-96.3911982,TX,Jackson County,14678,7199,7479
US,TX,48241,30.6621449,-93.8909795,TX,Jasper County,35640,17406,18234
US,TX,48243,30.6011897,-103.8627862,TX,Jeff Davis County,2221,1054,1167
US,TX,48245,29.9591505,-93.8856166,TX,Jefferson County,252993,129384,123609
US,TX,48247,27.3313882,-98.646804,TX,Jim Hogg County,5218,2605,2613
US,TX,48249,27.9724763,-97.8948331,TX,Jim Wells County,41486,20332,21154
US,TX,48251,32.4825922,-97.102626,TX,Johnson County,157544,78506,79038
US,TX,48253,32.5487363,-99.6251605,TX,Jones County,19944,12822,7122
US,TX,48255,28.8780414,-97.6985999,TX,Karnes County,14984,8933,6051
US,TX,48257,32.3779083,-96.0895366,TX,Kaufman County,111830,54970,56860
US,TX,48259,29.8584205,-98.5682326,TX,Kendall County,39010,18735,20275
US,TX,48261,26.9389899,-97.3234546,TX,Kenedy County,558,297,261
US,TX,48263,33.1847797,-100.7697199,TX,Kent County,667,322,345
US,TX,48265,29.8531632,-98.9525854,TX,Kerr County,50505,24368,26137
US,TX,48267,30.420146,-99.5646741,TX,Kimble County,4453,2162,2291
US,TX,48269,33.6142675,-100.2453455,TX,King County,274,141,133
US,TX,48271,29.4887749,-100.2734135,TX,Kinney County,3578,2111,1467
US,TX,48273,27.4263107,-97.2621396,TX,Kleberg County,31877,16476,15401
US,TX,48275,33.4841615,-99.5995843,TX,Knox County,3807,1938,1869
US,TX,48283,28.4216126,-99.0735686,TX,La Salle County,7319,4240,3079
US,TX,48277,33.570442,-95.3400354,TX,Lamar County,49626,23988,25638
US,TX,48279,34.1822615,-102.1455406,TX,Lamb County,13561,6873,6688
US,TX,48281,31.0784448,-97.9439821,TX,Lampasas County,20357,9972,10385
US,TX,48285,29.4224346,-96.7626555,TX,Lavaca County,19654,9520,10134
US,TX,48287,30.3121117,-96.7682094,TX,Lee County,16754,8456,8298
US,TX,48289,31.4894426,-95.7799984,TX,Leon County,16923,8410,8513
US,TX,48291,30.0705073,-94.5610705,TX,Liberty County,78598,38970,39628
US,TX,48293,31.4664092,-96.3368415,TX,Limestone County,23469,12023,11446
US,TX,48295,36.2354311,-100.2194404,TX,Lipscomb County,3507,1898,1609
US,TX,48297,28.2020233,-97.8983053,TX,Live Oak County,11976,6566,5410
US,TX,48299,30.5208571,-98.362259,TX,Llano County,19624,9518,10106
US,TX,48301,31.8449361,-103.5612293,TX,Loving County,76,40,36
US,TX,48303,33.5227504,-101.6250853,TX,Lubbock County,294682,145467,149215
US,TX,48305,33.1621758,-101.7831102,TX,Lynn County,5723,2891,2832
US,TX,48313,30.9625933,-95.6781212,TX,Madison County,13843,8758,5085
US,TX,48315,32.7591122,-94.1757478,TX,Marion County,10191,5013,5178
US,TX,48317,32.1353105,-101.7826727,TX,Martin County,5451,2783,2668
US,TX,48319,30.7708871,-99.0927903,TX,Mason County,4064,2095,1969
US,TX,48321,28.856165,-95.6300356,TX,Matagorda County,36719,18133,18586
US,TX,48323,28.4557334,-100.2391099,TX,Maverick County,56830,28129,28701
US,TX,48307,31.2938561,-99.1947987,TX,McCulloch County,8242,4182,4060
US,TX,48309,31.5305942,-96.8203785,TX,McLennan County,243394,118704,124690
US,TX,48311,28.384922,-98.5788529,TX,McMullen County,671,365,306
US,TX,48325,29.1367629,-98.8309365,TX,Medina County,47920,25100,22820
US,TX,48327,30.8951576,-99.7479922,TX,Menard County,2163,1150,1013
US,TX,48329,31.9877211,-101.8295216,TX,Midland County,155817,77923,77894
US,TX,48331,30.7071224,-96.7649539,TX,Milam County,24372,12126,12246
US,TX,48333,31.4749346,-98.4164268,TX,Mills County,4871,2332,2539
US,TX,48335,32.2897312,-100.7509367,TX,Mitchell County,8995,5553,3442
US,TX,48337,33.6955954,-97.5246983,TX,Montague County,19384,9485,9899
US,TX,48339,30.1657935,-95.1266003,TX,Montgomery County,518849,256808,262041
US,TX,48341,35.9246803,-101.7261846,TX,Moore County,22186,11429,10757
US,TX,48343,33.2354719,-94.6681193,TX,Morris County,12653,6069,6584
US,TX,48345,34.0578993,-100.7931519,TX,Motley County,1022,541,481
US,TX,48347,31.3966945,-94.3731877,TX,Nacogdoches County,65556,31292,34264
